{
  "type": "FeatureCollection",
  "generator": "overpass-turbo",
  "copyright": "The data included in this document is from www.openstreetmap.org. The data is made available under ODbL.",
  "timestamp": "2026-02-08T04:50:45Z",
  "features": [
    {
      "type": "Feature",
      "properties": {
        "@id": "relation/2094678",
        "amenity": "police",
        "building": "yes",
        "name": "Sector 3 Police Station",
        "type": "multipolygon",
        "@geometry": "center"
      },
      "geometry": {
        "type": "Point",
        "coordinates": [
          76.7969954,
          30.7568077
        ]
      },
      "id": "relation/2094678"
    },
    {
      "type": "Feature",
      "properties": {
        "@id": "relation/5229329",
        "amenity": "police",
        "building": "yes",
        "check_date": "2025-02-23",
        "name": "Sector 29 Police Station",
        "type": "multipolygon",
        "@geometry": "center"
      },
      "geometry": {
        "type": "Point",
        "coordinates": [
          77.0730897,
          28.4629003
        ]
      },
      "id": "relation/5229329"
    },
    {
      "type": "Feature",
      "properties": {
        "@id": "relation/5238229",
        "amenity": "police",
        "building": "yes",
        "name": "Palam Vihar Police Station",
        "type": "multipolygon",
        "@geometry": "center"
      },
      "geometry": {
        "type": "Point",
        "coordinates": [
          77.0633624,
          28.5012077
        ]
      },
      "id": "relation/5238229"
    },
    {
      "type": "Feature",
      "properties": {
        "@id": "relation/5386352",
        "amenity": "police",
        "building": "yes",
        "name": "Superintendent of Police, Hassan",
        "type": "multipolygon",
        "@geometry": "center"
      },
      "geometry": {
        "type": "Point",
        "coordinates": [
          76.1018791,
          13.0057513
        ]
      },
      "id": "relation/5386352"
    },
    {
      "type": "Feature",
      "properties": {
        "@id": "relation/5411739",
        "amenity": "police",
        "building": "yes",
        "type": "multipolygon",
        "@geometry": "center"
      },
      "geometry": {
        "type": "Point",
        "coordinates": [
          77.4721668,
          23.2412727
        ]
      },
      "id": "relation/5411739"
    },
    {
      "type": "Feature",
      "properties": {
        "@id": "relation/5625423",
        "amenity": "police",
        "building": "yes",
        "name": "Office of Circle Inspector of Police",
        "name:ml": "സി.ഐ. ഓഫീസ്",
        "type": "multipolygon",
        "@geometry": "center"
      },
      "geometry": {
        "type": "Point",
        "coordinates": [
          75.5659721,
          11.8318547
        ]
      },
      "id": "relation/5625423"
    },
    {
      "type": "Feature",
      "properties": {
        "@id": "relation/6184741",
        "addr:street": "May Field Gardens",
        "amenity": "police",
        "building": "yes",
        "building:levels": "2",
        "name": "Police Station Sec 51",
        "type": "multipolygon",
        "@geometry": "center"
      },
      "geometry": {
        "type": "Point",
        "coordinates": [
          77.0598854,
          28.4281672
        ]
      },
      "id": "relation/6184741"
    },
    {
      "type": "Feature",
      "properties": {
        "@id": "relation/6193455",
        "amenity": "police",
        "building": "yes",
        "type": "multipolygon",
        "@geometry": "center"
      },
      "geometry": {
        "type": "Point",
        "coordinates": [
          73.02991,
          19.0173449
        ]
      },
      "id": "relation/6193455"
    },
    {
      "type": "Feature",
      "properties": {
        "@id": "relation/9726774",
        "amenity": "police",
        "building": "yes",
        "type": "multipolygon",
        "@geometry": "center"
      },
      "geometry": {
        "type": "Point",
        "coordinates": [
          75.8698797,
          22.7193857
        ]
      },
      "id": "relation/9726774"
    },
    {
      "type": "Feature",
      "properties": {
        "@id": "relation/11500349",
        "amenity": "police",
        "type": "multipolygon",
        "@geometry": "center"
      },
      "geometry": {
        "type": "Point",
        "coordinates": [
          75.5705769,
          11.9309935
        ]
      },
      "id": "relation/11500349"
    },
    {
      "type": "Feature",
      "properties": {
        "@id": "relation/14062602",
        "addr:city": "Rohtak",
        "addr:street": "Ambedkar Chowk",
        "amenity": "police",
        "building": "yes",
        "name": "Women Police Station Rohtak",
        "type": "multipolygon",
        "@geometry": "center"
      },
      "geometry": {
        "type": "Point",
        "coordinates": [
          76.5923485,
          28.8980328
        ]
      },
      "id": "relation/14062602"
    },
    {
      "type": "Feature",
      "properties": {
        "@id": "relation/19233789",
        "amenity": "police",
        "building": "yes",
        "name": "Lodhi Colony Police Station",
        "operator": "Delhi Police",
        "operator:wikidata": "Q3764926",
        "type": "multipolygon",
        "@geometry": "center"
      },
      "geometry": {
        "type": "Point",
        "coordinates": [
          77.2264833,
          28.587959
        ]
      },
      "id": "relation/19233789"
    },
    {
      "type": "Feature",
      "properties": {
        "@id": "relation/19278855",
        "amenity": "police",
        "building": "government;yes",
        "name": "Maharashtra Police Headquarters",
        "type": "multipolygon",
        "@geometry": "center"
      },
      "geometry": {
        "type": "Point",
        "coordinates": [
          72.8335259,
          18.9251097
        ]
      },
      "id": "relation/19278855"
    },
    {
      "type": "Feature",
      "properties": {
        "@id": "relation/19566894",
        "addr:city": "Kaithwara",
        "addr:district": "deeg",
        "addr:postcode": "321024",
        "addr:street": "MDR50",
        "amenity": "police",
        "building": "yes",
        "name": "Police Station, Kaithwara",
        "type": "multipolygon",
        "@geometry": "center"
      },
      "geometry": {
        "type": "Point",
        "coordinates": [
          77.1296718,
          27.5760347
        ]
      },
      "id": "relation/19566894"
    },
    {
      "type": "Feature",
      "properties": {
        "@id": "way/24385984",
        "amenity": "police",
        "building": "yes",
        "name": "G1",
        "@geometry": "center"
      },
      "geometry": {
        "type": "Point",
        "coordinates": [
          76.7031563,
          11.4117251
        ]
      },
      "id": "way/24385984"
    },
    {
      "type": "Feature",
      "properties": {
        "@id": "way/32553617",
        "amenity": "police",
        "created_by": "Potlatch 0.10f",
        "name": "DSP nangal office",
        "@geometry": "center"
      },
      "geometry": {
        "type": "Point",
        "coordinates": [
          76.3723028,
          31.3962288
        ]
      },
      "id": "way/32553617"
    },
    {
      "type": "Feature",
      "properties": {
        "@id": "way/32747326",
        "amenity": "police",
        "building": "yes",
        "name": "Police Quarters",
        "@geometry": "center"
      },
      "geometry": {
        "type": "Point",
        "coordinates": [
          76.6888919,
          11.4119909
        ]
      },
      "id": "way/32747326"
    },
    {
      "type": "Feature",
      "properties": {
        "@id": "way/34404737",
        "amenity": "police",
        "name": "Police Station",
        "@geometry": "center"
      },
      "geometry": {
        "type": "Point",
        "coordinates": [
          75.8046346,
          30.8883001
        ]
      },
      "id": "way/34404737"
    },
    {
      "type": "Feature",
      "properties": {
        "@id": "way/39834520",
        "amenity": "police",
        "building": "apartments",
        "name": "Gamdevi Police Station",
        "@geometry": "center"
      },
      "geometry": {
        "type": "Point",
        "coordinates": [
          72.8123593,
          18.9605234
        ]
      },
      "id": "way/39834520"
    },
    {
      "type": "Feature",
      "properties": {
        "@id": "way/39839519",
        "amenity": "police",
        "building": "apartments",
        "layer": "1",
        "name": "Traffic Police",
        "@geometry": "center"
      },
      "geometry": {
        "type": "Point",
        "coordinates": [
          72.8128372,
          18.9615551
        ]
      },
      "id": "way/39839519"
    },
    {
      "type": "Feature",
      "properties": {
        "@id": "way/41703615",
        "amenity": "police",
        "building": "yes",
        "name": "Gulmarg Police",
        "@geometry": "center"
      },
      "geometry": {
        "type": "Point",
        "coordinates": [
          74.3858725,
          34.048585
        ]
      },
      "id": "way/41703615"
    },
    {
      "type": "Feature",
      "properties": {
        "@id": "way/43316308",
        "amenity": "police",
        "building": "yes",
        "name": "Women's Police Station",
        "@geometry": "center"
      },
      "geometry": {
        "type": "Point",
        "coordinates": [
          79.1339162,
          10.7809629
        ]
      },
      "id": "way/43316308"
    },
    {
      "type": "Feature",
      "properties": {
        "@id": "way/43316417",
        "amenity": "police",
        "name": "Thanjavur District Police HQ",
        "type": "boundary",
        "@geometry": "center"
      },
      "geometry": {
        "type": "Point",
        "coordinates": [
          79.1335845,
          10.7801475
        ]
      },
      "id": "way/43316417"
    },
    {
      "type": "Feature",
      "properties": {
        "@id": "way/48532705",
        "amenity": "police",
        "@geometry": "center"
      },
      "geometry": {
        "type": "Point",
        "coordinates": [
          77.2269535,
          28.6664277
        ]
      },
      "id": "way/48532705"
    },
    {
      "type": "Feature",
      "properties": {
        "@id": "way/48754898",
        "addr:city": "Mumbai",
        "addr:postcode": "400034",
        "addr:street": "Tardeo Police Lane",
        "amenity": "police",
        "building": "yes",
        "name": "Tardeo Police Station",
        "name:mr": "ताडदेव पोलीस स्टेशन",
        "@geometry": "center"
      },
      "geometry": {
        "type": "Point",
        "coordinates": [
          72.8141758,
          18.969485
        ]
      },
      "id": "way/48754898"
    },
    {
      "type": "Feature",
      "properties": {
        "@id": "way/68577309",
        "amenity": "police",
        "@geometry": "center"
      },
      "geometry": {
        "type": "Point",
        "coordinates": [
          77.3662248,
          28.559976
        ]
      },
      "id": "way/68577309"
    },
    {
      "type": "Feature",
      "properties": {
        "@id": "way/68868261",
        "amenity": "police",
        "building": "yes",
        "name": "Tumkur Rural Police Station",
        "name:kn": "ತುಮಕೂರು ಗ್ರಾಮಂತರ ಆರಕ್ಷಕ ಠಾಣೆ",
        "@geometry": "center"
      },
      "geometry": {
        "type": "Point",
        "coordinates": [
          77.1060337,
          13.3423497
        ]
      },
      "id": "way/68868261"
    },
    {
      "type": "Feature",
      "properties": {
        "@id": "way/71965392",
        "amenity": "police",
        "name": "Central Industrial Security Force",
        "@geometry": "center"
      },
      "geometry": {
        "type": "Point",
        "coordinates": [
          77.3812639,
          28.6362915
        ]
      },
      "id": "way/71965392"
    },
    {
      "type": "Feature",
      "properties": {
        "@id": "way/93107573",
        "addr:street": "moga road",
        "amenity": "police",
        "building": "yes",
        "name": "modren police station shahkot",
        "@geometry": "center"
      },
      "geometry": {
        "type": "Point",
        "coordinates": [
          75.3352998,
          31.0834385
        ]
      },
      "id": "way/93107573"
    },
    {
      "type": "Feature",
      "properties": {
        "@id": "way/100575811",
        "amenity": "police",
        "name": "Madikeri Town Police Station",
        "name:kn": "ಆರಕ್ಷಕ ಠಾಣೆ, ಮಡಿಕೆರಿ",
        "@geometry": "center"
      },
      "geometry": {
        "type": "Point",
        "coordinates": [
          75.7404457,
          12.4209688
        ]
      },
      "id": "way/100575811"
    },
    {
      "type": "Feature",
      "properties": {
        "@id": "way/102683530",
        "amenity": "police",
        "name": "Laxman Jhula police station",
        "@geometry": "center"
      },
      "geometry": {
        "type": "Point",
        "coordinates": [
          78.3265052,
          30.1227461
        ]
      },
      "id": "way/102683530"
    },
    {
      "type": "Feature",
      "properties": {
        "@id": "way/109024835",
        "amenity": "police",
        "name": "City Police Station",
        "@geometry": "center"
      },
      "geometry": {
        "type": "Point",
        "coordinates": [
          74.0272844,
          30.4076395
        ]
      },
      "id": "way/109024835"
    },
    {
      "type": "Feature",
      "properties": {
        "@id": "way/111324920",
        "amenity": "police",
        "building": "yes",
        "name": "Hathi Pol (Elephant Gate)",
        "@geometry": "center"
      },
      "geometry": {
        "type": "Point",
        "coordinates": [
          73.687604,
          24.5867188
        ]
      },
      "id": "way/111324920"
    },
    {
      "type": "Feature",
      "properties": {
        "@id": "way/111876316",
        "amenity": "police",
        "name": "Kadma Police Station",
        "@geometry": "center"
      },
      "geometry": {
        "type": "Point",
        "coordinates": [
          86.1722695,
          22.7986115
        ]
      },
      "id": "way/111876316"
    },
    {
      "type": "Feature",
      "properties": {
        "@id": "way/116826308",
        "amenity": "police",
        "building": "public",
        "name": "Police Station,Makboolpura",
        "@geometry": "center"
      },
      "geometry": {
        "type": "Point",
        "coordinates": [
          74.9175487,
          31.6191415
        ]
      },
      "id": "way/116826308"
    },
    {
      "type": "Feature",
      "properties": {
        "@id": "way/116828351",
        "amenity": "police",
        "name": "Police Station, Mehta",
        "@geometry": "center"
      },
      "geometry": {
        "type": "Point",
        "coordinates": [
          75.2576625,
          31.6663201
        ]
      },
      "id": "way/116828351"
    },
    {
      "type": "Feature",
      "properties": {
        "@id": "way/116828647",
        "amenity": "police",
        "building": "Offical",
        "name": "Police Station, Civil Line, Amritsar",
        "@geometry": "center"
      },
      "geometry": {
        "type": "Point",
        "coordinates": [
          74.8576274,
          31.6449657
        ]
      },
      "id": "way/116828647"
    },
    {
      "type": "Feature",
      "properties": {
        "@id": "way/116896110",
        "amenity": "police",
        "name": "Police Station, Harike",
        "@geometry": "center"
      },
      "geometry": {
        "type": "Point",
        "coordinates": [
          74.9443112,
          31.1670761
        ]
      },
      "id": "way/116896110"
    },
    {
      "type": "Feature",
      "properties": {
        "@id": "way/116896158",
        "amenity": "police",
        "building": "police",
        "name": "Police Station, Trpt.Nr.Jalandhar",
        "@geometry": "center"
      },
      "geometry": {
        "type": "Point",
        "coordinates": [
          75.583652,
          31.3638015
        ]
      },
      "id": "way/116896158"
    },
    {
      "type": "Feature",
      "properties": {
        "@id": "way/116896298",
        "amenity": "police",
        "building": "yes",
        "name": "Police Station, Jamsher, Jalandhar",
        "@geometry": "center"
      },
      "geometry": {
        "type": "Point",
        "coordinates": [
          75.6140829,
          31.2385655
        ]
      },
      "id": "way/116896298"
    },
    {
      "type": "Feature",
      "properties": {
        "@id": "way/116896442",
        "amenity": "police",
        "building": "police",
        "name": "Police Station, Bullowal, Hoshiarpur",
        "@geometry": "center"
      },
      "geometry": {
        "type": "Point",
        "coordinates": [
          75.7719737,
          31.5796002
        ]
      },
      "id": "way/116896442"
    },
    {
      "type": "Feature",
      "properties": {
        "@id": "way/118695624",
        "addr:city": "Ahmedabad",
        "amenity": "police",
        "name": "Sabarmati Police Station",
        "phone": "+917927506819",
        "@geometry": "center"
      },
      "geometry": {
        "type": "Point",
        "coordinates": [
          72.5916232,
          23.0852665
        ]
      },
      "id": "way/118695624"
    },
    {
      "type": "Feature",
      "properties": {
        "@id": "way/118898002",
        "amenity": "police",
        "name": "Versova Police station (D.N.Nagar)",
        "@geometry": "center"
      },
      "geometry": {
        "type": "Point",
        "coordinates": [
          72.8302511,
          19.1245725
        ]
      },
      "id": "way/118898002"
    },
    {
      "type": "Feature",
      "properties": {
        "@id": "way/123315699",
        "amenity": "police",
        "name": "Police Station, Baba Bakala",
        "@geometry": "center"
      },
      "geometry": {
        "type": "Point",
        "coordinates": [
          75.2673583,
          31.5550459
        ]
      },
      "id": "way/123315699"
    },
    {
      "type": "Feature",
      "properties": {
        "@id": "way/129560199",
        "amenity": "police",
        "@geometry": "center"
      },
      "geometry": {
        "type": "Point",
        "coordinates": [
          76.7963637,
          30.7121019
        ]
      },
      "id": "way/129560199"
    },
    {
      "type": "Feature",
      "properties": {
        "@id": "way/129774478",
        "amenity": "police",
        "@geometry": "center"
      },
      "geometry": {
        "type": "Point",
        "coordinates": [
          76.7785844,
          30.7389017
        ]
      },
      "id": "way/129774478"
    },
    {
      "type": "Feature",
      "properties": {
        "@id": "way/130035512",
        "amenity": "police",
        "name": "Police training camp 4th battalion in coimbatore",
        "@geometry": "center"
      },
      "geometry": {
        "type": "Point",
        "coordinates": [
          76.9396392,
          10.9412581
        ]
      },
      "id": "way/130035512"
    },
    {
      "type": "Feature",
      "properties": {
        "@id": "way/130302045",
        "amenity": "police",
        "name": "Police Post Sector 25",
        "phone": "+91-172-2550514",
        "@geometry": "center"
      },
      "geometry": {
        "type": "Point",
        "coordinates": [
          76.8804085,
          30.6731718
        ]
      },
      "id": "way/130302045"
    },
    {
      "type": "Feature",
      "properties": {
        "@id": "way/131396829",
        "amenity": "police",
        "name": "Siddapura Police Station",
        "name:kn": "ಸಿದ್ದಾಪುರ ಆರಕ್ಷಕ ಠಾಣೆ",
        "@geometry": "center"
      },
      "geometry": {
        "type": "Point",
        "coordinates": [
          77.5923803,
          12.9388722
        ]
      },
      "id": "way/131396829"
    },
    {
      "type": "Feature",
      "properties": {
        "@id": "way/131764958",
        "addr:city": "Raikot",
        "addr:postcode": "141109",
        "addr:street": "Thana Bazar Street",
        "amenity": "police",
        "building": "yes",
        "designation": "Police Station",
        "name": "Police Station",
        "operator": "Punjab Police",
        "@geometry": "center"
      },
      "geometry": {
        "type": "Point",
        "coordinates": [
          75.5976345,
          30.6462958
        ]
      },
      "id": "way/131764958"
    },
    {
      "type": "Feature",
      "properties": {
        "@id": "way/133242913",
        "amenity": "police",
        "name": "Rural Police station",
        "name:kn": "ಗ್ರಾಮಂತರ ಆರಕ್ಷಕ ಠಾಣೆ",
        "@geometry": "center"
      },
      "geometry": {
        "type": "Point",
        "coordinates": [
          76.884609,
          12.5194059
        ]
      },
      "id": "way/133242913"
    },
    {
      "type": "Feature",
      "properties": {
        "@id": "way/133370849",
        "amenity": "police",
        "name": "Hagari Bommanahalli Police station",
        "name:kn": "ಆರಕ್ಷಕ ಠಾಣೆ, ಹಗರಿ ಬೊಮ್ಮನಹಳ್ಳಿ",
        "@geometry": "center"
      },
      "geometry": {
        "type": "Point",
        "coordinates": [
          76.20968,
          15.0530166
        ]
      },
      "id": "way/133370849"
    },
    {
      "type": "Feature",
      "properties": {
        "@id": "way/133485168",
        "amenity": "police",
        "name": "Police Stn (Sec-40)",
        "@geometry": "center"
      },
      "geometry": {
        "type": "Point",
        "coordinates": [
          77.0588707,
          28.4499365
        ]
      },
      "id": "way/133485168"
    },
    {
      "type": "Feature",
      "properties": {
        "@id": "way/133585587",
        "addr:city": "Gopalapuram",
        "addr:district": "Coimbatore",
        "addr:housenumber": "62",
        "addr:postcode": "641018",
        "addr:street": "Old Post Office Rd, Near Railway Station, Opp. Collector Office",
        "amenity": "police",
        "building": "yes",
        "name": "Commisioner Office",
        "opening_hours": "24/7",
        "@geometry": "center"
      },
      "geometry": {
        "type": "Point",
        "coordinates": [
          76.9681639,
          11.0007466
        ]
      },
      "id": "way/133585587"
    },
    {
      "type": "Feature",
      "properties": {
        "@id": "way/133739505",
        "Jurisdiction Area": "Saravanampatty, Coimbatore-641035",
        "amenity": "police",
        "name": "B9 Saravanampatty Police Station",
        "phone": "0422 – 2666445",
        "@geometry": "center"
      },
      "geometry": {
        "type": "Point",
        "coordinates": [
          77.0027098,
          11.0747167
        ]
      },
      "id": "way/133739505"
    },
    {
      "type": "Feature",
      "properties": {
        "@id": "way/134023570",
        "amenity": "police",
        "name": "Udupi Town Police Station",
        "name:kn": "ಆರಕ್ಷಕ ಠಾಣೆ ಉಡುಪಿ",
        "@geometry": "center"
      },
      "geometry": {
        "type": "Point",
        "coordinates": [
          74.7481877,
          13.3307021
        ]
      },
      "id": "way/134023570"
    },
    {
      "type": "Feature",
      "properties": {
        "@id": "way/134210517",
        "amenity": "police",
        "name": "Police Station Sadar, Ludhiana City",
        "@geometry": "center"
      },
      "geometry": {
        "type": "Point",
        "coordinates": [
          75.8436078,
          30.9143466
        ]
      },
      "id": "way/134210517"
    },
    {
      "type": "Feature",
      "properties": {
        "@id": "way/134210518",
        "amenity": "police",
        "name": "CPSC GILL, LUDHIANA CITY",
        "@geometry": "center"
      },
      "geometry": {
        "type": "Point",
        "coordinates": [
          75.8428904,
          30.9145365
        ]
      },
      "id": "way/134210518"
    },
    {
      "type": "Feature",
      "properties": {
        "@id": "way/134210947",
        "amenity": "police",
        "name": "DIG Ludhiana Range, OFFICE",
        "@geometry": "center"
      },
      "geometry": {
        "type": "Point",
        "coordinates": [
          75.843448,
          30.9170557
        ]
      },
      "id": "way/134210947"
    },
    {
      "type": "Feature",
      "properties": {
        "@id": "way/134210948",
        "amenity": "police",
        "name": "Police Station Division No. 5",
        "@geometry": "center"
      },
      "geometry": {
        "type": "Point",
        "coordinates": [
          75.8471994,
          30.9075383
        ]
      },
      "id": "way/134210948"
    },
    {
      "type": "Feature",
      "properties": {
        "@id": "way/134210949",
        "amenity": "police",
        "name": "Police Station Outreach Centre Div. No. 5",
        "@geometry": "center"
      },
      "geometry": {
        "type": "Point",
        "coordinates": [
          75.8471215,
          30.9073419
        ]
      },
      "id": "way/134210949"
    },
    {
      "type": "Feature",
      "properties": {
        "@id": "way/134765152",
        "amenity": "police",
        "name": "Sadar Thana Sunam",
        "@geometry": "center"
      },
      "geometry": {
        "type": "Point",
        "coordinates": [
          75.8936752,
          30.1583847
        ]
      },
      "id": "way/134765152"
    },
    {
      "type": "Feature",
      "properties": {
        "@id": "way/135732933",
        "amenity": "police",
        "building": "yes",
        "name": "Shivaji Park Police Station",
        "@geometry": "center"
      },
      "geometry": {
        "type": "Point",
        "coordinates": [
          72.8409178,
          19.0232623
        ]
      },
      "id": "way/135732933"
    },
    {
      "type": "Feature",
      "properties": {
        "@id": "way/136492654",
        "amenity": "police",
        "building": "yes",
        "name": "Whitefield Traffic Police Station",
        "name:kn": "ಸಂಚಾರ ಪೊಲೀಸ್ ಠಾಣೆ",
        "@geometry": "center"
      },
      "geometry": {
        "type": "Point",
        "coordinates": [
          77.7571802,
          12.9942469
        ]
      },
      "id": "way/136492654"
    },
    {
      "type": "Feature",
      "properties": {
        "@id": "way/143045336",
        "amenity": "police",
        "name": "Maangar Police Chowki",
        "@geometry": "center"
      },
      "geometry": {
        "type": "Point",
        "coordinates": [
          77.1923715,
          28.4068907
        ]
      },
      "id": "way/143045336"
    },
    {
      "type": "Feature",
      "properties": {
        "@id": "way/143898749",
        "amenity": "police",
        "@geometry": "center"
      },
      "geometry": {
        "type": "Point",
        "coordinates": [
          77.335289,
          28.369156
        ]
      },
      "id": "way/143898749"
    },
    {
      "type": "Feature",
      "properties": {
        "@id": "way/151586128",
        "amenity": "police",
        "name": "Nilgiri armed reserve",
        "@geometry": "center"
      },
      "geometry": {
        "type": "Point",
        "coordinates": [
          76.7092904,
          11.4239411
        ]
      },
      "id": "way/151586128"
    },
    {
      "type": "Feature",
      "properties": {
        "@id": "way/153157987",
        "amenity": "police",
        "barrier": "wall",
        "check_date": "2025-08-20",
        "name": "Nehru Place Police Station",
        "@geometry": "center"
      },
      "geometry": {
        "type": "Point",
        "coordinates": [
          77.2553709,
          28.5497122
        ]
      },
      "id": "way/153157987"
    },
    {
      "type": "Feature",
      "properties": {
        "@id": "way/154712258",
        "amenity": "police",
        "barrier": "wall",
        "name": "CR Park Police Station",
        "@geometry": "center"
      },
      "geometry": {
        "type": "Point",
        "coordinates": [
          77.2495134,
          28.5367835
        ]
      },
      "id": "way/154712258"
    },
    {
      "type": "Feature",
      "properties": {
        "@id": "way/157808427",
        "amenity": "police",
        "name": "Police Station Sector-12",
        "@geometry": "center"
      },
      "geometry": {
        "type": "Point",
        "coordinates": [
          77.3407466,
          28.5932105
        ]
      },
      "id": "way/157808427"
    },
    {
      "type": "Feature",
      "properties": {
        "@id": "way/160435099",
        "amenity": "police",
        "name": "Police Station",
        "name:kn": "ಆರಕ್ಷಕ ಠಾಣೆ",
        "@geometry": "center"
      },
      "geometry": {
        "type": "Point",
        "coordinates": [
          75.3657237,
          13.5352363
        ]
      },
      "id": "way/160435099"
    },
    {
      "type": "Feature",
      "properties": {
        "@id": "way/162173870",
        "amenity": "police",
        "building": "yes",
        "@geometry": "center"
      },
      "geometry": {
        "type": "Point",
        "coordinates": [
          75.1393298,
          15.3506549
        ]
      },
      "id": "way/162173870"
    },
    {
      "type": "Feature",
      "properties": {
        "@id": "way/166769940",
        "amenity": "police",
        "designation": "Central Police Station",
        "name": "Central Police Station",
        "name:kn": "ಕೇಂದ್ರಿಯ ಆರಕ್ಷಕ ಠಾಣೆ",
        "@geometry": "center"
      },
      "geometry": {
        "type": "Point",
        "coordinates": [
          77.5720622,
          12.9601303
        ]
      },
      "id": "way/166769940"
    },
    {
      "type": "Feature",
      "properties": {
        "@id": "way/168610366",
        "addr:city": "Mysuru",
        "amenity": "police",
        "building": "yes",
        "name": "Vontikoppal Police Station",
        "name:kn": "ಒಂಟಿಕೊಪ್ಪಲು ಆರಕ್ಷಕ ಠಾಣೆ",
        "@geometry": "center"
      },
      "geometry": {
        "type": "Point",
        "coordinates": [
          76.6327,
          12.3260953
        ]
      },
      "id": "way/168610366"
    },
    {
      "type": "Feature",
      "properties": {
        "@id": "way/169250683",
        "amenity": "police",
        "building": "yes",
        "name": "Police Building",
        "operator": "Jammu and Kashmir Police",
        "operator:wikidata": "Q6148022",
        "roof:shape": "gabled",
        "@geometry": "center"
      },
      "geometry": {
        "type": "Point",
        "coordinates": [
          74.7990833,
          34.0772828
        ]
      },
      "id": "way/169250683"
    },
    {
      "type": "Feature",
      "properties": {
        "@id": "way/169412325",
        "amenity": "police",
        "building": "yes",
        "name": "Lajpat Nagar Police Station",
        "operator": "Delhi Police",
        "operator:wikidata": "Q3764926",
        "@geometry": "center"
      },
      "geometry": {
        "type": "Point",
        "coordinates": [
          77.2403935,
          28.5681737
        ]
      },
      "id": "way/169412325"
    },
    {
      "type": "Feature",
      "properties": {
        "@id": "way/170101096",
        "addr:city": "Jaipur",
        "addr:postcode": "302003",
        "addr:street": "Badi Chaupar",
        "amenity": "police",
        "building": "yes",
        "check_date": "2025-11-03",
        "name": "Police Thana Manak Chowk",
        "phone": "0141 260 1366",
        "website": "https://jaipurpolice.rajasthan.gov.in/",
        "@geometry": "center"
      },
      "geometry": {
        "type": "Point",
        "coordinates": [
          75.8275598,
          26.9231805
        ]
      },
      "id": "way/170101096"
    },
    {
      "type": "Feature",
      "properties": {
        "@id": "way/170941790",
        "amenity": "police",
        "@geometry": "center"
      },
      "geometry": {
        "type": "Point",
        "coordinates": [
          78.2056658,
          12.5293021
        ]
      },
      "id": "way/170941790"
    },
    {
      "type": "Feature",
      "properties": {
        "@id": "way/176323356",
        "amenity": "police",
        "name": "City Police Commissioner Office",
        "@geometry": "center"
      },
      "geometry": {
        "type": "Point",
        "coordinates": [
          75.7824253,
          11.2542304
        ]
      },
      "id": "way/176323356"
    },
    {
      "type": "Feature",
      "properties": {
        "@id": "way/178011211",
        "amenity": "police",
        "name": "Police Station,Mavoor",
        "ref": "15288045",
        "@geometry": "center"
      },
      "geometry": {
        "type": "Point",
        "coordinates": [
          75.951825,
          11.2610616
        ]
      },
      "id": "way/178011211"
    },
    {
      "type": "Feature",
      "properties": {
        "@id": "way/178616405",
        "amenity": "police",
        "check_date": "2024-04-11",
        "name": "Pavoorchatram Police Station",
        "@geometry": "center"
      },
      "geometry": {
        "type": "Point",
        "coordinates": [
          77.3841992,
          8.9153414
        ]
      },
      "id": "way/178616405"
    },
    {
      "type": "Feature",
      "properties": {
        "@id": "way/179915833",
        "amenity": "police",
        "name": "Govandi Police station",
        "@geometry": "center"
      },
      "geometry": {
        "type": "Point",
        "coordinates": [
          72.9175446,
          19.0486817
        ]
      },
      "id": "way/179915833"
    },
    {
      "type": "Feature",
      "properties": {
        "@id": "way/183940769",
        "amenity": "police",
        "name": "police station mathahi",
        "@geometry": "center"
      },
      "geometry": {
        "type": "Point",
        "coordinates": [
          86.72532,
          25.9082683
        ]
      },
      "id": "way/183940769"
    },
    {
      "type": "Feature",
      "properties": {
        "@id": "way/190291268",
        "amenity": "police",
        "@geometry": "center"
      },
      "geometry": {
        "type": "Point",
        "coordinates": [
          77.1517947,
          28.5352556
        ]
      },
      "id": "way/190291268"
    },
    {
      "type": "Feature",
      "properties": {
        "@id": "way/190291270",
        "amenity": "police",
        "barrier": "wall",
        "@geometry": "center"
      },
      "geometry": {
        "type": "Point",
        "coordinates": [
          77.1429,
          28.5341516
        ]
      },
      "id": "way/190291270"
    },
    {
      "type": "Feature",
      "properties": {
        "@id": "way/190923516",
        "amenity": "police",
        "name": "Kalighat Police Station",
        "@geometry": "center"
      },
      "geometry": {
        "type": "Point",
        "coordinates": [
          88.3437773,
          22.5213925
        ]
      },
      "id": "way/190923516"
    },
    {
      "type": "Feature",
      "properties": {
        "@id": "way/190925408",
        "amenity": "police",
        "name": "Kalighat Police Station",
        "@geometry": "center"
      },
      "geometry": {
        "type": "Point",
        "coordinates": [
          88.3436495,
          22.5209102
        ]
      },
      "id": "way/190925408"
    },
    {
      "type": "Feature",
      "properties": {
        "@id": "way/192206270",
        "amenity": "police",
        "name": "Sahakarnagar Police Station",
        "@geometry": "center"
      },
      "geometry": {
        "type": "Point",
        "coordinates": [
          73.849652,
          18.4894643
        ]
      },
      "id": "way/192206270"
    },
    {
      "type": "Feature",
      "properties": {
        "@id": "way/192964068",
        "alt_name": "Newspaper ommunity",
        "amenity": "police",
        "name": "Office of Circle Inspector of Police",
        "name:kn": "ಸರ್ಕಲ್ ಇನ್ಸ್‌ಪೆಕ್ಟರ್ ಪೋಲಿಸ್ ಕಛೇರಿ",
        "@geometry": "center"
      },
      "geometry": {
        "type": "Point",
        "coordinates": [
          76.9400375,
          13.3149611
        ]
      },
      "id": "way/192964068"
    },
    {
      "type": "Feature",
      "properties": {
        "@id": "way/193301316",
        "amenity": "police",
        "check_date": "2024-10-24",
        "name": "South Police Station",
        "ref": "15289048",
        "@geometry": "center"
      },
      "geometry": {
        "type": "Point",
        "coordinates": [
          76.6606127,
          10.7656008
        ]
      },
      "id": "way/193301316"
    },
    {
      "type": "Feature",
      "properties": {
        "@id": "way/196092411",
        "amenity": "police",
        "name": "Santacruz Police Station",
        "name:en": "Santacruz Police Station",
        "name:mr": "सांताक्रुझ पोलीस ठाणे",
        "@geometry": "center"
      },
      "geometry": {
        "type": "Point",
        "coordinates": [
          72.8350658,
          19.0841421
        ]
      },
      "id": "way/196092411"
    },
    {
      "type": "Feature",
      "properties": {
        "@id": "way/196620996",
        "amenity": "police",
        "name": "Versova Police Chowki",
        "@geometry": "center"
      },
      "geometry": {
        "type": "Point",
        "coordinates": [
          72.8106349,
          19.1367566
        ]
      },
      "id": "way/196620996"
    },
    {
      "type": "Feature",
      "properties": {
        "@id": "way/198406989",
        "amenity": "police",
        "building": "yes",
        "name": "Janamaithri Police Station,Thodupuzha",
        "ref": "15294021",
        "@geometry": "center"
      },
      "geometry": {
        "type": "Point",
        "coordinates": [
          76.7131184,
          9.8971553
        ]
      },
      "id": "way/198406989"
    },
    {
      "type": "Feature",
      "properties": {
        "@id": "way/199263665",
        "addr:city": "Khajuraho",
        "amenity": "police",
        "name": "Police Station",
        "@geometry": "center"
      },
      "geometry": {
        "type": "Point",
        "coordinates": [
          79.9262916,
          24.8466899
        ]
      },
      "id": "way/199263665"
    },
    {
      "type": "Feature",
      "properties": {
        "@id": "way/205016768",
        "amenity": "police",
        "building": "yes",
        "name": "Police Station",
        "name:kn": "ಆರಕ್ಷಕ ಠಾಣೆ",
        "@geometry": "center"
      },
      "geometry": {
        "type": "Point",
        "coordinates": [
          74.8135181,
          13.8633352
        ]
      },
      "id": "way/205016768"
    },
    {
      "type": "Feature",
      "properties": {
        "@id": "way/206997332",
        "amenity": "police",
        "building": "yes",
        "name": "Police Station, Kasaba",
        "ref": "15288035",
        "@geometry": "center"
      },
      "geometry": {
        "type": "Point",
        "coordinates": [
          75.7920481,
          11.2527808
        ]
      },
      "id": "way/206997332"
    },
    {
      "type": "Feature",
      "properties": {
        "@id": "way/207284526",
        "amenity": "police",
        "building": "yes",
        "building:levels": "1",
        "@geometry": "center"
      },
      "geometry": {
        "type": "Point",
        "coordinates": [
          88.387204,
          23.4217723
        ]
      },
      "id": "way/207284526"
    },
    {
      "type": "Feature",
      "properties": {
        "@id": "way/207376649",
        "amenity": "police",
        "landuse": "commercial",
        "name": "Azad Maidan Police Station",
        "@geometry": "center"
      },
      "geometry": {
        "type": "Point",
        "coordinates": [
          72.832942,
          18.9415557
        ]
      },
      "id": "way/207376649"
    },
    {
      "type": "Feature",
      "properties": {
        "@id": "way/207376650",
        "amenity": "police",
        "@geometry": "center"
      },
      "geometry": {
        "type": "Point",
        "coordinates": [
          72.8332649,
          18.9420194
        ]
      },
      "id": "way/207376650"
    },
    {
      "type": "Feature",
      "properties": {
        "@id": "way/207380908",
        "amenity": "police",
        "@geometry": "center"
      },
      "geometry": {
        "type": "Point",
        "coordinates": [
          72.8329469,
          18.9447895
        ]
      },
      "id": "way/207380908"
    },
    {
      "type": "Feature",
      "properties": {
        "@id": "way/207417322",
        "amenity": "police",
        "name": "Colaba Police Station",
        "@geometry": "center"
      },
      "geometry": {
        "type": "Point",
        "coordinates": [
          72.8309833,
          18.9224367
        ]
      },
      "id": "way/207417322"
    },
    {
      "type": "Feature",
      "properties": {
        "@id": "way/207538317",
        "amenity": "police",
        "@geometry": "center"
      },
      "geometry": {
        "type": "Point",
        "coordinates": [
          72.8319773,
          18.9541543
        ]
      },
      "id": "way/207538317"
    },
    {
      "type": "Feature",
      "properties": {
        "@id": "way/207858102",
        "amenity": "police",
        "name": "Robertsonpet Police station",
        "name:kn": "ಆರಕ್ಷಕ ಠಾಣೆ",
        "@geometry": "center"
      },
      "geometry": {
        "type": "Point",
        "coordinates": [
          78.2717107,
          12.9575826
        ]
      },
      "id": "way/207858102"
    },
    {
      "type": "Feature",
      "properties": {
        "@id": "way/208506465",
        "amenity": "police",
        "name": "City Police Station Nawanshahr",
        "source": "Survey",
        "@geometry": "center"
      },
      "geometry": {
        "type": "Point",
        "coordinates": [
          76.1186777,
          31.1236853
        ]
      },
      "id": "way/208506465"
    },
    {
      "type": "Feature",
      "properties": {
        "@id": "way/208569725",
        "amenity": "police",
        "name": "Mylapore E1 PS",
        "@geometry": "center"
      },
      "geometry": {
        "type": "Point",
        "coordinates": [
          80.2701421,
          13.0359873
        ]
      },
      "id": "way/208569725"
    },
    {
      "type": "Feature",
      "properties": {
        "@id": "way/208827398",
        "addr:city": "Bangalore",
        "addr:postcode": "560002",
        "addr:street": "Cubbon Park Road, Opposite-BBMP Office, Cubbonpet,",
        "amenity": "police",
        "landuse": "commercial",
        "name": "Halasuru Gate Traffic Police Station",
        "phone": "080 2294 2660",
        "website": "NA",
        "@geometry": "center"
      },
      "geometry": {
        "type": "Point",
        "coordinates": [
          77.5870156,
          12.9665425
        ]
      },
      "id": "way/208827398"
    },
    {
      "type": "Feature",
      "properties": {
        "@id": "way/208827412",
        "amenity": "police",
        "name": "CID Office",
        "old_name": "Carlton House",
        "@geometry": "center"
      },
      "geometry": {
        "type": "Point",
        "coordinates": [
          77.5855355,
          12.9814206
        ]
      },
      "id": "way/208827412"
    },
    {
      "type": "Feature",
      "properties": {
        "@id": "way/209494684",
        "amenity": "police",
        "barrier": "wall",
        "@geometry": "center"
      },
      "geometry": {
        "type": "Point",
        "coordinates": [
          77.028071,
          28.5909304
        ]
      },
      "id": "way/209494684"
    },
    {
      "type": "Feature",
      "properties": {
        "@id": "way/211435479",
        "amenity": "police",
        "name": "Periamet PS",
        "@geometry": "center"
      },
      "geometry": {
        "type": "Point",
        "coordinates": [
          80.2709138,
          13.0831121
        ]
      },
      "id": "way/211435479"
    },
    {
      "type": "Feature",
      "properties": {
        "@id": "way/211864592",
        "amenity": "police",
        "@geometry": "center"
      },
      "geometry": {
        "type": "Point",
        "coordinates": [
          80.2706569,
          13.0590491
        ]
      },
      "id": "way/211864592"
    },
    {
      "type": "Feature",
      "properties": {
        "@id": "way/214356712",
        "addr:city": "Chennai",
        "addr:housenumber": "1",
        "addr:postcode": "600017",
        "addr:street": "Madley Road",
        "amenity": "police",
        "name": "R1 Police Station",
        "phone": "044 2345 2608",
        "@geometry": "center"
      },
      "geometry": {
        "type": "Point",
        "coordinates": [
          80.2294897,
          13.0347642
        ]
      },
      "id": "way/214356712"
    },
    {
      "type": "Feature",
      "properties": {
        "@id": "way/217637688",
        "amenity": "police",
        "name": "Esplanade PS",
        "@geometry": "center"
      },
      "geometry": {
        "type": "Point",
        "coordinates": [
          80.2853702,
          13.0864715
        ]
      },
      "id": "way/217637688"
    },
    {
      "type": "Feature",
      "properties": {
        "@id": "way/217766495",
        "amenity": "police",
        "name": "Central Reserve Police Force",
        "@geometry": "center"
      },
      "geometry": {
        "type": "Point",
        "coordinates": [
          80.8945152,
          26.7299423
        ]
      },
      "id": "way/217766495"
    },
    {
      "type": "Feature",
      "properties": {
        "@id": "way/217767201",
        "amenity": "police",
        "name": "F4 Greams Road PS",
        "@geometry": "center"
      },
      "geometry": {
        "type": "Point",
        "coordinates": [
          80.2547972,
          13.0598386
        ]
      },
      "id": "way/217767201"
    },
    {
      "type": "Feature",
      "properties": {
        "@id": "way/217864794",
        "amenity": "police",
        "@geometry": "center"
      },
      "geometry": {
        "type": "Point",
        "coordinates": [
          80.2873206,
          13.1231943
        ]
      },
      "id": "way/217864794"
    },
    {
      "type": "Feature",
      "properties": {
        "@id": "way/217878794",
        "amenity": "police",
        "@geometry": "center"
      },
      "geometry": {
        "type": "Point",
        "coordinates": [
          80.2601445,
          13.1000303
        ]
      },
      "id": "way/217878794"
    },
    {
      "type": "Feature",
      "properties": {
        "@id": "way/217920494",
        "amenity": "police",
        "name": "Peravallur Police Station",
        "@geometry": "center"
      },
      "geometry": {
        "type": "Point",
        "coordinates": [
          80.2263784,
          13.1113985
        ]
      },
      "id": "way/217920494"
    },
    {
      "type": "Feature",
      "properties": {
        "@id": "way/217921152",
        "amenity": "police",
        "@geometry": "center"
      },
      "geometry": {
        "type": "Point",
        "coordinates": [
          80.2434556,
          13.0934393
        ]
      },
      "id": "way/217921152"
    },
    {
      "type": "Feature",
      "properties": {
        "@id": "way/217960575",
        "amenity": "police",
        "name": "D1 Triplicane Police Station",
        "ref": "D1",
        "@geometry": "center"
      },
      "geometry": {
        "type": "Point",
        "coordinates": [
          80.2736489,
          13.0672549
        ]
      },
      "id": "way/217960575"
    },
    {
      "type": "Feature",
      "properties": {
        "@id": "way/218691368",
        "amenity": "police",
        "name": "Chavan Nagar - Pune Rural Police Headquarters",
        "name:mr": "पुणे ग्रामीण पोलीस मुख्यालय",
        "@geometry": "center"
      },
      "geometry": {
        "type": "Point",
        "coordinates": [
          73.8228316,
          18.543639
        ]
      },
      "id": "way/218691368"
    },
    {
      "type": "Feature",
      "properties": {
        "@id": "way/222252171",
        "amenity": "police",
        "name": "Traffic Police Station",
        "name:kn": "ಸಂಚಾರ ಪೊಲೀಸ್ ಠಾಣೆ",
        "@geometry": "center"
      },
      "geometry": {
        "type": "Point",
        "coordinates": [
          74.505352,
          15.8574034
        ]
      },
      "id": "way/222252171"
    },
    {
      "type": "Feature",
      "properties": {
        "@id": "way/228954230",
        "amenity": "police",
        "landuse": "residential",
        "name": "Police Complex Madhuban",
        "@geometry": "center"
      },
      "geometry": {
        "type": "Point",
        "coordinates": [
          76.9772589,
          29.6156099
        ]
      },
      "id": "way/228954230"
    },
    {
      "type": "Feature",
      "properties": {
        "@id": "way/228972299",
        "amenity": "police",
        "police": "academy",
        "@geometry": "center"
      },
      "geometry": {
        "type": "Point",
        "coordinates": [
          77.0418767,
          29.7359439
        ]
      },
      "id": "way/228972299"
    },
    {
      "type": "Feature",
      "properties": {
        "@id": "way/231052535",
        "amenity": "police",
        "building": "yes",
        "name": "K4 Police Station",
        "@geometry": "center"
      },
      "geometry": {
        "type": "Point",
        "coordinates": [
          80.21797,
          13.0925447
        ]
      },
      "id": "way/231052535"
    },
    {
      "type": "Feature",
      "properties": {
        "@id": "way/232040039",
        "amenity": "police",
        "name": "II Town Police Station",
        "@geometry": "center"
      },
      "geometry": {
        "type": "Point",
        "coordinates": [
          80.1597016,
          17.2517858
        ]
      },
      "id": "way/232040039"
    },
    {
      "type": "Feature",
      "properties": {
        "@id": "way/235939616",
        "amenity": "police",
        "name": "RPF Reserve Line - Mulund",
        "operator": "Indian Railways",
        "operator:wikidata": "Q3523040",
        "police": "barracks",
        "@geometry": "center"
      },
      "geometry": {
        "type": "Point",
        "coordinates": [
          72.9595462,
          19.174276
        ]
      },
      "id": "way/235939616"
    },
    {
      "type": "Feature",
      "properties": {
        "@id": "way/237025775",
        "amenity": "police",
        "@geometry": "center"
      },
      "geometry": {
        "type": "Point",
        "coordinates": [
          72.8167794,
          18.9609597
        ]
      },
      "id": "way/237025775"
    },
    {
      "type": "Feature",
      "properties": {
        "@id": "way/238279646",
        "amenity": "police",
        "building": "yes",
        "@geometry": "center"
      },
      "geometry": {
        "type": "Point",
        "coordinates": [
          88.3988208,
          22.5417713
        ]
      },
      "id": "way/238279646"
    },
    {
      "type": "Feature",
      "properties": {
        "@id": "way/238319049",
        "amenity": "police",
        "building": "yes",
        "name": "police ground",
        "@geometry": "center"
      },
      "geometry": {
        "type": "Point",
        "coordinates": [
          78.8250834,
          14.4752906
        ]
      },
      "id": "way/238319049"
    },
    {
      "type": "Feature",
      "properties": {
        "@id": "way/239094319",
        "addr:city": "Jodhpur",
        "addr:district": "Jodhpur",
        "addr:postcode": "342005",
        "addr:state": "Rajasthan",
        "addr:street": "Basni",
        "amenity": "police",
        "leisure": "police",
        "name": "Basni Police Station",
        "phone": "0291 2650759",
        "@geometry": "center"
      },
      "geometry": {
        "type": "Point",
        "coordinates": [
          73.0071311,
          26.2296106
        ]
      },
      "id": "way/239094319"
    },
    {
      "type": "Feature",
      "properties": {
        "@id": "way/239641074",
        "amenity": "police",
        "building": "yes",
        "name": "Saket Police Station",
        "@geometry": "center"
      },
      "geometry": {
        "type": "Point",
        "coordinates": [
          77.2083829,
          28.5233652
        ]
      },
      "id": "way/239641074"
    },
    {
      "type": "Feature",
      "properties": {
        "@id": "way/240227365",
        "amenity": "police",
        "building": "commercial",
        "name": "Nedumangad Traffic Police Station",
        "@geometry": "center"
      },
      "geometry": {
        "type": "Point",
        "coordinates": [
          77.0031713,
          8.6049054
        ]
      },
      "id": "way/240227365"
    },
    {
      "type": "Feature",
      "properties": {
        "@id": "way/240511203",
        "addr:street": "2nd Avenue, Ashok Nagar, Raghavan Colony, Kodambakkam, Chennai, Tamil Nadu 600024",
        "amenity": "police",
        "name": "R3 Ashok Nagar Police Station",
        "opening_hours": "24/7",
        "phone": "044 2345 2617",
        "website": "tnpolice.gov.in",
        "@geometry": "center"
      },
      "geometry": {
        "type": "Point",
        "coordinates": [
          80.2173045,
          13.0440809
        ]
      },
      "id": "way/240511203"
    },
    {
      "type": "Feature",
      "properties": {
        "@id": "way/241007895",
        "amenity": "police",
        "name": "Abhiramapuram",
        "@geometry": "center"
      },
      "geometry": {
        "type": "Point",
        "coordinates": [
          80.2559671,
          13.0332562
        ]
      },
      "id": "way/241007895"
    },
    {
      "type": "Feature",
      "properties": {
        "@id": "way/241027985",
        "addr:city": "Chennai",
        "addr:postcode": "600008",
        "addr:street": "Egmore High Road",
        "amenity": "police",
        "name": "F2 Egmore Police Station",
        "phone": "044 2345 2678",
        "@geometry": "center"
      },
      "geometry": {
        "type": "Point",
        "coordinates": [
          80.257014,
          13.0750725
        ]
      },
      "id": "way/241027985"
    },
    {
      "type": "Feature",
      "properties": {
        "@id": "node/243415753",
        "amenity": "police",
        "name": "Police Station Sahnewal"
      },
      "geometry": {
        "type": "Point",
        "coordinates": [
          75.9745287,
          30.8352537
        ]
      },
      "id": "node/243415753"
    },
    {
      "type": "Feature",
      "properties": {
        "@id": "node/247177690",
        "addr:postcode": "641034",
        "addr:street": "Mettupalayam-Coimbatore Road",
        "amenity": "police",
        "amenity:ta": "காவல் நிலையம்",
        "name": "Thudiyalur Police Station",
        "name:ta": "துடியலூர் காவல் நிலையம்",
        "opening_hours": "24/7"
      },
      "geometry": {
        "type": "Point",
        "coordinates": [
          76.9412411,
          11.0820675
        ]
      },
      "id": "node/247177690"
    },
    {
      "type": "Feature",
      "properties": {
        "@id": "way/249517268",
        "amenity": "police",
        "name": "Police Station",
        "name:kn": "ಆರಕ್ಷಕ ಠಾಣೆ",
        "@geometry": "center"
      },
      "geometry": {
        "type": "Point",
        "coordinates": [
          76.5724659,
          12.4062195
        ]
      },
      "id": "way/249517268"
    },
    {
      "type": "Feature",
      "properties": {
        "@id": "way/249888151",
        "amenity": "police",
        "building": "yes",
        "name": "Police Quarters",
        "name:kn": "ಪೊಲೀಸ್ ವಸತಿಗೃಹ",
        "@geometry": "center"
      },
      "geometry": {
        "type": "Point",
        "coordinates": [
          76.5774931,
          12.4077536
        ]
      },
      "id": "way/249888151"
    },
    {
      "type": "Feature",
      "properties": {
        "@id": "way/250080497",
        "amenity": "police",
        "name": "Regional Police Training School",
        "@geometry": "center"
      },
      "geometry": {
        "type": "Point",
        "coordinates": [
          79.0605649,
          21.1186348
        ]
      },
      "id": "way/250080497"
    },
    {
      "type": "Feature",
      "properties": {
        "@id": "node/250363729",
        "amenity": "police",
        "created_by": "Potlatch 0.10f",
        "name": "Mambalam Police Station"
      },
      "geometry": {
        "type": "Point",
        "coordinates": [
          80.22946,
          13.0349573
        ]
      },
      "id": "node/250363729"
    },
    {
      "type": "Feature",
      "properties": {
        "@id": "way/250933111",
        "addr:city": "khardi",
        "addr:housename": "Khardi Police staion",
        "addr:postcode": "421301",
        "addr:street": "Mumbai Agra Road(NH3)",
        "amenity": "police",
        "name": "Khardi Police Staion",
        "operator": "Khardi Police",
        "@geometry": "center"
      },
      "geometry": {
        "type": "Point",
        "coordinates": [
          73.3880255,
          19.5858176
        ]
      },
      "id": "way/250933111"
    },
    {
      "type": "Feature",
      "properties": {
        "@id": "way/253296711",
        "amenity": "police",
        "building": "yes",
        "name": "Leh District Jail",
        "@geometry": "center"
      },
      "geometry": {
        "type": "Point",
        "coordinates": [
          77.5874994,
          34.1159379
        ]
      },
      "id": "way/253296711"
    },
    {
      "type": "Feature",
      "properties": {
        "@id": "way/253460277",
        "amenity": "police",
        "building": "yes",
        "name": "Traffic Police Station",
        "operator": "Andhra Pradesh Police Department",
        "@geometry": "center"
      },
      "geometry": {
        "type": "Point",
        "coordinates": [
          78.5579354,
          17.3616089
        ]
      },
      "id": "way/253460277"
    },
    {
      "type": "Feature",
      "properties": {
        "@id": "way/257229106",
        "amenity": "police",
        "building": "yes",
        "name": "Police Station,Mananthavady",
        "ref": "15298015",
        "@geometry": "center"
      },
      "geometry": {
        "type": "Point",
        "coordinates": [
          76.0038427,
          11.797173
        ]
      },
      "id": "way/257229106"
    },
    {
      "type": "Feature",
      "properties": {
        "@id": "way/257315246",
        "amenity": "police",
        "building": "yes",
        "name": "DySP Office",
        "@geometry": "center"
      },
      "geometry": {
        "type": "Point",
        "coordinates": [
          76.0041986,
          11.79515
        ]
      },
      "id": "way/257315246"
    },
    {
      "type": "Feature",
      "properties": {
        "@id": "way/257396869",
        "amenity": "police",
        "building": "yes",
        "name": "Vairyali bazar Police Chowki",
        "@geometry": "center"
      },
      "geometry": {
        "type": "Point",
        "coordinates": [
          72.8239712,
          21.2051031
        ]
      },
      "id": "way/257396869"
    },
    {
      "type": "Feature",
      "properties": {
        "@id": "way/258246547",
        "amenity": "police",
        "name": "New Friends Colony PS",
        "@geometry": "center"
      },
      "geometry": {
        "type": "Point",
        "coordinates": [
          77.2674314,
          28.5625518
        ]
      },
      "id": "way/258246547"
    },
    {
      "type": "Feature",
      "properties": {
        "@id": "way/258406595",
        "amenity": "police",
        "name": "Police Line",
        "@geometry": "center"
      },
      "geometry": {
        "type": "Point",
        "coordinates": [
          76.8822965,
          29.9777939
        ]
      },
      "id": "way/258406595"
    },
    {
      "type": "Feature",
      "properties": {
        "@id": "way/259024069",
        "amenity": "police",
        "@geometry": "center"
      },
      "geometry": {
        "type": "Point",
        "coordinates": [
          77.2850581,
          28.6748039
        ]
      },
      "id": "way/259024069"
    },
    {
      "type": "Feature",
      "properties": {
        "@id": "way/259036535",
        "amenity": "police",
        "check_date": "2025-09-01",
        "name": "Roop Nagar Police Station",
        "name:en": "Roop Nagar Police Station",
        "@geometry": "center"
      },
      "geometry": {
        "type": "Point",
        "coordinates": [
          77.2021568,
          28.6850044
        ]
      },
      "id": "way/259036535"
    },
    {
      "type": "Feature",
      "properties": {
        "@id": "node/259773441",
        "amenity": "police",
        "created_by": "Potlatch 0.10f",
        "name": "Royapettah PS"
      },
      "geometry": {
        "type": "Point",
        "coordinates": [
          80.2637348,
          13.0520106
        ]
      },
      "id": "node/259773441"
    },
    {
      "type": "Feature",
      "properties": {
        "@id": "way/260463358",
        "amenity": "police",
        "@geometry": "center"
      },
      "geometry": {
        "type": "Point",
        "coordinates": [
          77.0768152,
          28.6116948
        ]
      },
      "id": "way/260463358"
    },
    {
      "type": "Feature",
      "properties": {
        "@id": "way/260799534",
        "amenity": "police",
        "barrier": "wall",
        "name": "Anjuna Police Station",
        "@geometry": "center"
      },
      "geometry": {
        "type": "Point",
        "coordinates": [
          73.7436452,
          15.590725
        ]
      },
      "id": "way/260799534"
    },
    {
      "type": "Feature",
      "properties": {
        "@id": "way/261548068",
        "addr:city": "Ghal Kalan",
        "amenity": "police",
        "building": "yes",
        "name": "Sadar Police Station",
        "@geometry": "center"
      },
      "geometry": {
        "type": "Point",
        "coordinates": [
          75.0934661,
          30.829569
        ]
      },
      "id": "way/261548068"
    },
    {
      "type": "Feature",
      "properties": {
        "@id": "way/262248695",
        "amenity": "police",
        "@geometry": "center"
      },
      "geometry": {
        "type": "Point",
        "coordinates": [
          77.2656868,
          28.5308191
        ]
      },
      "id": "way/262248695"
    },
    {
      "type": "Feature",
      "properties": {
        "@id": "way/262562939",
        "amenity": "police",
        "@geometry": "center"
      },
      "geometry": {
        "type": "Point",
        "coordinates": [
          77.0679729,
          28.6300302
        ]
      },
      "id": "way/262562939"
    },
    {
      "type": "Feature",
      "properties": {
        "@id": "way/262563342",
        "amenity": "police",
        "name": "police station talasari",
        "@geometry": "center"
      },
      "geometry": {
        "type": "Point",
        "coordinates": [
          72.9177414,
          20.1184277
        ]
      },
      "id": "way/262563342"
    },
    {
      "type": "Feature",
      "properties": {
        "@id": "way/262879659",
        "amenity": "police",
        "name": "PS-2",
        "@geometry": "center"
      },
      "geometry": {
        "type": "Point",
        "coordinates": [
          94.5187652,
          26.3240899
        ]
      },
      "id": "way/262879659"
    },
    {
      "type": "Feature",
      "properties": {
        "@id": "way/264444880",
        "amenity": "police",
        "building": "yes",
        "name": "Faraskhana Police Station",
        "name:mr": "फरासखाना पोलीस ठाणे",
        "@geometry": "center"
      },
      "geometry": {
        "type": "Point",
        "coordinates": [
          73.8558419,
          18.5164428
        ]
      },
      "id": "way/264444880"
    },
    {
      "type": "Feature",
      "properties": {
        "@id": "node/264481213",
        "amenity": "police",
        "created_by": "JOSM",
        "name:en": "Nungambakkam F3 police station"
      },
      "geometry": {
        "type": "Point",
        "coordinates": [
          80.2427681,
          13.0596173
        ]
      },
      "id": "node/264481213"
    },
    {
      "type": "Feature",
      "properties": {
        "@id": "way/265383630",
        "amenity": "police",
        "name": "Police Station Khanvel",
        "@geometry": "center"
      },
      "geometry": {
        "type": "Point",
        "coordinates": [
          73.0680814,
          20.1277836
        ]
      },
      "id": "way/265383630"
    },
    {
      "type": "Feature",
      "properties": {
        "@id": "way/265420572",
        "amenity": "police",
        "name": "Police Station ,Kodad",
        "@geometry": "center"
      },
      "geometry": {
        "type": "Point",
        "coordinates": [
          79.9655415,
          16.9980964
        ]
      },
      "id": "way/265420572"
    },
    {
      "type": "Feature",
      "properties": {
        "@id": "way/265902954",
        "amenity": "police",
        "building": "yes",
        "name": "Akurdi Police Chowky",
        "@geometry": "center"
      },
      "geometry": {
        "type": "Point",
        "coordinates": [
          73.7670685,
          18.6507414
        ]
      },
      "id": "way/265902954"
    },
    {
      "type": "Feature",
      "properties": {
        "@id": "way/265911418",
        "amenity": "police",
        "building": "yes",
        "@geometry": "center"
      },
      "geometry": {
        "type": "Point",
        "coordinates": [
          77.1836843,
          28.6688409
        ]
      },
      "id": "way/265911418"
    },
    {
      "type": "Feature",
      "properties": {
        "@id": "node/266584707",
        "amenity": "police",
        "created_by": "Potlatch 0.9a"
      },
      "geometry": {
        "type": "Point",
        "coordinates": [
          79.1742208,
          26.6615399
        ]
      },
      "id": "node/266584707"
    },
    {
      "type": "Feature",
      "properties": {
        "@id": "way/266768715",
        "amenity": "police",
        "building": "yes",
        "check_date": "2024-12-22",
        "name": "Daryaganj Police Station",
        "operator": "Delhi Police",
        "start_date": "1930",
        "@geometry": "center"
      },
      "geometry": {
        "type": "Point",
        "coordinates": [
          77.2413386,
          28.6417309
        ]
      },
      "id": "way/266768715"
    },
    {
      "type": "Feature",
      "properties": {
        "@id": "way/269837455",
        "amenity": "police",
        "building": "yes",
        "name": "Coastal Police Station , Ernakulam",
        "ref": "15285019",
        "@geometry": "center"
      },
      "geometry": {
        "type": "Point",
        "coordinates": [
          76.251554,
          9.9689222
        ]
      },
      "id": "way/269837455"
    },
    {
      "type": "Feature",
      "properties": {
        "@id": "way/271785239",
        "amenity": "police",
        "building": "yes",
        "name": "Srirampura Police Station",
        "name:kn": "ಶ್ರೀರಾಮಪುರ ಆರಕ್ಷಕ ಠಾಣೆ",
        "@geometry": "center"
      },
      "geometry": {
        "type": "Point",
        "coordinates": [
          77.5649365,
          12.9900504
        ]
      },
      "id": "way/271785239"
    },
    {
      "type": "Feature",
      "properties": {
        "@id": "way/272245420",
        "amenity": "police",
        "barrier": "wall",
        "@geometry": "center"
      },
      "geometry": {
        "type": "Point",
        "coordinates": [
          76.9411626,
          28.3665369
        ]
      },
      "id": "way/272245420"
    },
    {
      "type": "Feature",
      "properties": {
        "@id": "way/272529345",
        "amenity": "police",
        "@geometry": "center"
      },
      "geometry": {
        "type": "Point",
        "coordinates": [
          76.9092944,
          28.3730383
        ]
      },
      "id": "way/272529345"
    },
    {
      "type": "Feature",
      "properties": {
        "@id": "way/273417185",
        "amenity": "police",
        "barrier": "wall",
        "@geometry": "center"
      },
      "geometry": {
        "type": "Point",
        "coordinates": [
          77.0170789,
          28.4954346
        ]
      },
      "id": "way/273417185"
    },
    {
      "type": "Feature",
      "properties": {
        "@id": "way/273417186",
        "amenity": "police",
        "barrier": "wall",
        "@geometry": "center"
      },
      "geometry": {
        "type": "Point",
        "coordinates": [
          77.0245269,
          28.5042019
        ]
      },
      "id": "way/273417186"
    },
    {
      "type": "Feature",
      "properties": {
        "@id": "way/277949819",
        "alt_name": "Home Gaurds",
        "amenity": "police",
        "barrier": "wall",
        "name": "Nishkam Seva Bhawan",
        "@geometry": "center"
      },
      "geometry": {
        "type": "Point",
        "coordinates": [
          77.1220336,
          28.6566706
        ]
      },
      "id": "way/277949819"
    },
    {
      "type": "Feature",
      "properties": {
        "@id": "way/278777089",
        "amenity": "police",
        "name": "Police Station Putlampalli",
        "@geometry": "center"
      },
      "geometry": {
        "type": "Point",
        "coordinates": [
          78.8625516,
          14.4362616
        ]
      },
      "id": "way/278777089"
    },
    {
      "type": "Feature",
      "properties": {
        "@id": "way/278779376",
        "amenity": "police",
        "barrier": "wall",
        "name": "District Police Head Quaters",
        "@geometry": "center"
      },
      "geometry": {
        "type": "Point",
        "coordinates": [
          77.9894851,
          16.7493308
        ]
      },
      "id": "way/278779376"
    },
    {
      "type": "Feature",
      "properties": {
        "@id": "way/279868288",
        "amenity": "police",
        "name": "police quaters",
        "@geometry": "center"
      },
      "geometry": {
        "type": "Point",
        "coordinates": [
          78.0284515,
          15.8278479
        ]
      },
      "id": "way/279868288"
    },
    {
      "type": "Feature",
      "properties": {
        "@id": "way/279962774",
        "amenity": "police",
        "barrier": "wall",
        "@geometry": "center"
      },
      "geometry": {
        "type": "Point",
        "coordinates": [
          77.0584391,
          28.5648054
        ]
      },
      "id": "way/279962774"
    },
    {
      "type": "Feature",
      "properties": {
        "@id": "node/280430828",
        "amenity": "police",
        "created_by": "Potlatch 0.10"
      },
      "geometry": {
        "type": "Point",
        "coordinates": [
          73.9173998,
          18.5075612
        ]
      },
      "id": "node/280430828"
    },
    {
      "type": "Feature",
      "properties": {
        "@id": "way/280451556",
        "amenity": "police",
        "name": "Hanmakonda",
        "@geometry": "center"
      },
      "geometry": {
        "type": "Point",
        "coordinates": [
          79.568599,
          18.0069933
        ]
      },
      "id": "way/280451556"
    },
    {
      "type": "Feature",
      "properties": {
        "@id": "way/280451558",
        "amenity": "police",
        "name": "Police Head Quarters",
        "@geometry": "center"
      },
      "geometry": {
        "type": "Point",
        "coordinates": [
          79.5576878,
          18.0084307
        ]
      },
      "id": "way/280451558"
    },
    {
      "type": "Feature",
      "properties": {
        "@id": "way/280454636",
        "amenity": "police",
        "name": "police head quarters",
        "@geometry": "center"
      },
      "geometry": {
        "type": "Point",
        "coordinates": [
          79.0977223,
          13.210464
        ]
      },
      "id": "way/280454636"
    },
    {
      "type": "Feature",
      "properties": {
        "@id": "way/281318863",
        "amenity": "police",
        "building": "yes",
        "name": "Shillong Sadar Police Station",
        "@geometry": "center"
      },
      "geometry": {
        "type": "Point",
        "coordinates": [
          91.8818236,
          25.5793727
        ]
      },
      "id": "way/281318863"
    },
    {
      "type": "Feature",
      "properties": {
        "@id": "node/283650908",
        "amenity": "police",
        "name": "Hebbagodi Police Station",
        "name:kn": "ಹೆಬ್ಬಗೋಡಿ ಆರಕ್ಷಕ ಠಾಣೆ"
      },
      "geometry": {
        "type": "Point",
        "coordinates": [
          77.6820851,
          12.8263652
        ]
      },
      "id": "node/283650908"
    },
    {
      "type": "Feature",
      "properties": {
        "@id": "way/283784907",
        "amenity": "police",
        "barrier": "wall",
        "@geometry": "center"
      },
      "geometry": {
        "type": "Point",
        "coordinates": [
          77.3399689,
          28.6231116
        ]
      },
      "id": "way/283784907"
    },
    {
      "type": "Feature",
      "properties": {
        "@id": "way/285515160",
        "addr:city": "Palampur",
        "addr:postcode": "176061",
        "addr:street": "NH 20",
        "amenity": "police",
        "building": "yes",
        "name": "Palampur Police Station",
        "phone": "0189 423 0211",
        "@geometry": "center"
      },
      "geometry": {
        "type": "Point",
        "coordinates": [
          76.5352032,
          32.1069954
        ]
      },
      "id": "way/285515160"
    },
    {
      "type": "Feature",
      "properties": {
        "@id": "way/286555856",
        "amenity": "police",
        "building": "yes",
        "name": "Oorgaum Police Station",
        "name:kn": "ಆರಕ್ಷಕ ಠಾಣೆ",
        "@geometry": "center"
      },
      "geometry": {
        "type": "Point",
        "coordinates": [
          78.2591987,
          12.9549466
        ]
      },
      "id": "way/286555856"
    },
    {
      "type": "Feature",
      "properties": {
        "@id": "way/286607857",
        "addr:city": "Bhilwara",
        "addr:postcode": "311001",
        "amenity": "police",
        "building": "yes",
        "name": "City Police Control Room",
        "name:hi": "पुलिस कण्ट्रोल रूम, भीलवाड़ा",
        "@geometry": "center"
      },
      "geometry": {
        "type": "Point",
        "coordinates": [
          74.6327412,
          25.3443145
        ]
      },
      "id": "way/286607857"
    },
    {
      "type": "Feature",
      "properties": {
        "@id": "way/286651507",
        "addr:city": "Bhilwara",
        "addr:postcode": "311001",
        "addr:street": "Bheemganj",
        "amenity": "police",
        "building": "yes",
        "name": "Bheemganj Police Station",
        "name:hi": "भीमगंज पुलिस थाना",
        "@geometry": "center"
      },
      "geometry": {
        "type": "Point",
        "coordinates": [
          74.6416199,
          25.3445494
        ]
      },
      "id": "way/286651507"
    },
    {
      "type": "Feature",
      "properties": {
        "@id": "node/287047361",
        "amenity": "police",
        "name": "Police station Shimla puri"
      },
      "geometry": {
        "type": "Point",
        "coordinates": [
          75.8614661,
          30.8887587
        ]
      },
      "id": "node/287047361"
    },
    {
      "type": "Feature",
      "properties": {
        "@id": "way/287500331",
        "amenity": "police",
        "barrier": "wall",
        "name": "DCP Shahdara District Office",
        "@geometry": "center"
      },
      "geometry": {
        "type": "Point",
        "coordinates": [
          77.286262,
          28.6645906
        ]
      },
      "id": "way/287500331"
    },
    {
      "type": "Feature",
      "properties": {
        "@id": "node/289419951",
        "amenity": "police",
        "name": "Commissioner Of Police,  Residence"
      },
      "geometry": {
        "type": "Point",
        "coordinates": [
          75.8384698,
          30.9155653
        ]
      },
      "id": "node/289419951"
    },
    {
      "type": "Feature",
      "properties": {
        "@id": "way/289600239",
        "amenity": "police",
        "building": "yes",
        "name": "Police station",
        "name:kn": "ಆರಕ್ಷಕ ಠಾಣೆ",
        "@geometry": "center"
      },
      "geometry": {
        "type": "Point",
        "coordinates": [
          77.469718,
          12.6816347
        ]
      },
      "id": "way/289600239"
    },
    {
      "type": "Feature",
      "properties": {
        "@id": "way/289961816",
        "amenity": "police",
        "barrier": "wall",
        "@geometry": "center"
      },
      "geometry": {
        "type": "Point",
        "coordinates": [
          77.2260672,
          28.6425191
        ]
      },
      "id": "way/289961816"
    },
    {
      "type": "Feature",
      "properties": {
        "@id": "way/290136040",
        "amenity": "police",
        "barrier": "wall",
        "name": "Police Station Wazirabad",
        "@geometry": "center"
      },
      "geometry": {
        "type": "Point",
        "coordinates": [
          77.2244231,
          28.7069717
        ]
      },
      "id": "way/290136040"
    },
    {
      "type": "Feature",
      "properties": {
        "@id": "way/291621843",
        "amenity": "police",
        "barrier": "wall",
        "@geometry": "center"
      },
      "geometry": {
        "type": "Point",
        "coordinates": [
          77.2194906,
          28.5328269
        ]
      },
      "id": "way/291621843"
    },
    {
      "type": "Feature",
      "properties": {
        "@id": "way/291623401",
        "amenity": "police",
        "barrier": "wall",
        "@geometry": "center"
      },
      "geometry": {
        "type": "Point",
        "coordinates": [
          77.0648745,
          28.6254858
        ]
      },
      "id": "way/291623401"
    },
    {
      "type": "Feature",
      "properties": {
        "@id": "node/292309756",
        "amenity": "police"
      },
      "geometry": {
        "type": "Point",
        "coordinates": [
          83.1453826,
          25.2719364
        ]
      },
      "id": "node/292309756"
    },
    {
      "type": "Feature",
      "properties": {
        "@id": "way/292511169",
        "amenity": "police",
        "barrier": "wall",
        "@geometry": "center"
      },
      "geometry": {
        "type": "Point",
        "coordinates": [
          77.2041727,
          28.7070813
        ]
      },
      "id": "way/292511169"
    },
    {
      "type": "Feature",
      "properties": {
        "@id": "way/293158433",
        "amenity": "police",
        "barrier": "wall",
        "@geometry": "center"
      },
      "geometry": {
        "type": "Point",
        "coordinates": [
          77.2107352,
          28.6541302
        ]
      },
      "id": "way/293158433"
    },
    {
      "type": "Feature",
      "properties": {
        "@id": "way/293395747",
        "amenity": "police",
        "barrier": "wall",
        "@geometry": "center"
      },
      "geometry": {
        "type": "Point",
        "coordinates": [
          77.2446595,
          28.6251166
        ]
      },
      "id": "way/293395747"
    },
    {
      "type": "Feature",
      "properties": {
        "@id": "way/293526551",
        "amenity": "police",
        "barrier": "wall",
        "name": "Police Station Paharganj",
        "@geometry": "center"
      },
      "geometry": {
        "type": "Point",
        "coordinates": [
          77.2090042,
          28.6454252
        ]
      },
      "id": "way/293526551"
    },
    {
      "type": "Feature",
      "properties": {
        "@id": "node/293685306",
        "addr:district": "South Andaman",
        "amenity": "police",
        "name": "Chatham Police Station"
      },
      "geometry": {
        "type": "Point",
        "coordinates": [
          92.7236991,
          11.6830489
        ]
      },
      "id": "node/293685306"
    },
    {
      "type": "Feature",
      "properties": {
        "@id": "node/293757607",
        "amenity": "police"
      },
      "geometry": {
        "type": "Point",
        "coordinates": [
          82.9550377,
          25.3566904
        ]
      },
      "id": "node/293757607"
    },
    {
      "type": "Feature",
      "properties": {
        "@id": "way/293948696",
        "amenity": "police",
        "building": "yes",
        "@geometry": "center"
      },
      "geometry": {
        "type": "Point",
        "coordinates": [
          77.1324759,
          16.7627708
        ]
      },
      "id": "way/293948696"
    },
    {
      "type": "Feature",
      "properties": {
        "@id": "way/294119235",
        "amenity": "police",
        "barrier": "wall",
        "@geometry": "center"
      },
      "geometry": {
        "type": "Point",
        "coordinates": [
          77.2599064,
          28.5779761
        ]
      },
      "id": "way/294119235"
    },
    {
      "type": "Feature",
      "properties": {
        "@id": "way/294127508",
        "amenity": "police",
        "barrier": "wall",
        "@geometry": "center"
      },
      "geometry": {
        "type": "Point",
        "coordinates": [
          77.0879593,
          28.8531159
        ]
      },
      "id": "way/294127508"
    },
    {
      "type": "Feature",
      "properties": {
        "@id": "way/294235756",
        "amenity": "police",
        "barrier": "wall",
        "name": "Hazrat Nizamuddin Police Station",
        "police": "station",
        "@geometry": "center"
      },
      "geometry": {
        "type": "Point",
        "coordinates": [
          77.243758,
          28.5922683
        ]
      },
      "id": "way/294235756"
    },
    {
      "type": "Feature",
      "properties": {
        "@id": "way/294524907",
        "amenity": "police",
        "barrier": "wall",
        "@geometry": "center"
      },
      "geometry": {
        "type": "Point",
        "coordinates": [
          77.1790899,
          28.571113
        ]
      },
      "id": "way/294524907"
    },
    {
      "type": "Feature",
      "properties": {
        "@id": "way/294725413",
        "amenity": "police",
        "name": "Armed Reserve Camp, Maloorkunnu",
        "police": "barracks",
        "@geometry": "center"
      },
      "geometry": {
        "type": "Point",
        "coordinates": [
          75.8141497,
          11.2989755
        ]
      },
      "id": "way/294725413"
    },
    {
      "type": "Feature",
      "properties": {
        "@id": "way/295103984",
        "amenity": "police",
        "name": "Sulur Police Station",
        "name:ta": "சூலூர் காவல் நிலையம்",
        "@geometry": "center"
      },
      "geometry": {
        "type": "Point",
        "coordinates": [
          77.1204842,
          11.0248612
        ]
      },
      "id": "way/295103984"
    },
    {
      "type": "Feature",
      "properties": {
        "@id": "node/295766640",
        "amenity": "police",
        "check_date": "2025-08-21",
        "name": "DCP Bangalore North Traffic Police",
        "wheelchair": "no"
      },
      "geometry": {
        "type": "Point",
        "coordinates": [
          77.5581675,
          13.0181973
        ]
      },
      "id": "node/295766640"
    },
    {
      "type": "Feature",
      "properties": {
        "@id": "way/297136815",
        "amenity": "police",
        "building": "yes",
        "name": "Police Checkpoint",
        "@geometry": "center"
      },
      "geometry": {
        "type": "Point",
        "coordinates": [
          77.5177642,
          34.8111171
        ]
      },
      "id": "way/297136815"
    },
    {
      "type": "Feature",
      "properties": {
        "@id": "way/297184195",
        "amenity": "police",
        "@geometry": "center"
      },
      "geometry": {
        "type": "Point",
        "coordinates": [
          77.388367,
          8.9990294
        ]
      },
      "id": "way/297184195"
    },
    {
      "type": "Feature",
      "properties": {
        "@id": "way/297495780",
        "addr:street": "Velachery - Tambaram Main Road",
        "amenity": "police",
        "building": "yes",
        "name": "Selaiyur Police Station",
        "@geometry": "center"
      },
      "geometry": {
        "type": "Point",
        "coordinates": [
          80.1352359,
          12.9229459
        ]
      },
      "id": "way/297495780"
    },
    {
      "type": "Feature",
      "properties": {
        "@id": "node/299338989",
        "amenity": "police",
        "name": "Road closed"
      },
      "geometry": {
        "type": "Point",
        "coordinates": [
          75.8617488,
          32.8698242
        ]
      },
      "id": "node/299338989"
    },
    {
      "type": "Feature",
      "properties": {
        "@id": "node/299654019",
        "amenity": "police",
        "police": "checkpoint"
      },
      "geometry": {
        "type": "Point",
        "coordinates": [
          77.2006462,
          32.6743509
        ]
      },
      "id": "node/299654019"
    },
    {
      "type": "Feature",
      "properties": {
        "@id": "node/300468066",
        "addr:postcode": "600088",
        "amenity": "police",
        "name": "S-8 Adambakkam Police Station"
      },
      "geometry": {
        "type": "Point",
        "coordinates": [
          80.2019683,
          12.9893957
        ]
      },
      "id": "node/300468066"
    },
    {
      "type": "Feature",
      "properties": {
        "@id": "way/300611478",
        "addr:city": "Navsari",
        "addr:postcode": "396445",
        "addr:street": "Dandi Heritage Highway",
        "amenity": "police",
        "building": "yes",
        "name": "Town Police",
        "@geometry": "center"
      },
      "geometry": {
        "type": "Point",
        "coordinates": [
          72.9294094,
          20.9541807
        ]
      },
      "id": "way/300611478"
    },
    {
      "type": "Feature",
      "properties": {
        "@id": "way/301679812",
        "amenity": "police",
        "name": "Lokayuktha Police",
        "name:kn": "ಲೋಕಾಯುಕ್ತ",
        "@geometry": "center"
      },
      "geometry": {
        "type": "Point",
        "coordinates": [
          77.1285383,
          16.7476678
        ]
      },
      "id": "way/301679812"
    },
    {
      "type": "Feature",
      "properties": {
        "@id": "way/301916609",
        "amenity": "police",
        "building": "yes",
        "name": "Sector 19 Police Station",
        "@geometry": "center"
      },
      "geometry": {
        "type": "Point",
        "coordinates": [
          84.8675258,
          22.2554847
        ]
      },
      "id": "way/301916609"
    },
    {
      "type": "Feature",
      "properties": {
        "@id": "node/301949978",
        "amenity": "police",
        "created_by": "Potlatch 0.10f",
        "name": "Teynampet E3 PS"
      },
      "geometry": {
        "type": "Point",
        "coordinates": [
          80.2494881,
          13.048651
        ]
      },
      "id": "node/301949978"
    },
    {
      "type": "Feature",
      "properties": {
        "@id": "node/303925790",
        "amenity": "police",
        "name": "Jayanagar 4th Block Police Station",
        "name:kn": "ಜಯನಗರ ನಾಲ್ಕನೇ ಹಂತ ಪೋಲೀಸ್ ಠಾಣೆ"
      },
      "geometry": {
        "type": "Point",
        "coordinates": [
          77.5813657,
          12.9285653
        ]
      },
      "id": "node/303925790"
    },
    {
      "type": "Feature",
      "properties": {
        "@id": "way/304496613",
        "addr:postcode": "335501",
        "amenity": "police",
        "building": "yes",
        "name": "Police Station",
        "@geometry": "center"
      },
      "geometry": {
        "type": "Point",
        "coordinates": [
          75.3650333,
          29.0764178
        ]
      },
      "id": "way/304496613"
    },
    {
      "type": "Feature",
      "properties": {
        "@id": "way/304764781",
        "amenity": "police",
        "building": "yes",
        "name": "police chauki",
        "@geometry": "center"
      },
      "geometry": {
        "type": "Point",
        "coordinates": [
          78.0824609,
          27.283366
        ]
      },
      "id": "way/304764781"
    },
    {
      "type": "Feature",
      "properties": {
        "@id": "way/305109113",
        "amenity": "police",
        "name": "Topkhana Police Station",
        "@geometry": "center"
      },
      "geometry": {
        "type": "Point",
        "coordinates": [
          76.8463762,
          30.3684277
        ]
      },
      "id": "way/305109113"
    },
    {
      "type": "Feature",
      "properties": {
        "@id": "way/305226386",
        "amenity": "police",
        "building": "yes",
        "name": "Khandagiri P.S.",
        "@geometry": "center"
      },
      "geometry": {
        "type": "Point",
        "coordinates": [
          85.7898949,
          20.2595273
        ]
      },
      "id": "way/305226386"
    },
    {
      "type": "Feature",
      "properties": {
        "@id": "way/305672482",
        "amenity": "police",
        "area": "yes",
        "name": "Police thana barhan",
        "@geometry": "center"
      },
      "geometry": {
        "type": "Point",
        "coordinates": [
          78.1905732,
          27.3289101
        ]
      },
      "id": "way/305672482"
    },
    {
      "type": "Feature",
      "properties": {
        "@id": "way/305976583",
        "amenity": "police",
        "building": "yes",
        "name": "Rural and Town Police station",
        "@geometry": "center"
      },
      "geometry": {
        "type": "Point",
        "coordinates": [
          78.884444,
          17.5148363
        ]
      },
      "id": "way/305976583"
    },
    {
      "type": "Feature",
      "properties": {
        "@id": "way/306980743",
        "amenity": "police",
        "building": "yes",
        "name": "Police Quarters",
        "@geometry": "center"
      },
      "geometry": {
        "type": "Point",
        "coordinates": [
          77.8673495,
          11.4741243
        ]
      },
      "id": "way/306980743"
    },
    {
      "type": "Feature",
      "properties": {
        "@id": "way/307399448",
        "amenity": "police",
        "building": "yes",
        "name": "Osmanpura Police Station.",
        "@geometry": "center"
      },
      "geometry": {
        "type": "Point",
        "coordinates": [
          75.3254352,
          19.8635385
        ]
      },
      "id": "way/307399448"
    },
    {
      "type": "Feature",
      "properties": {
        "@id": "way/308016832",
        "amenity": "police",
        "name": "Dharavi Police Station",
        "@geometry": "center"
      },
      "geometry": {
        "type": "Point",
        "coordinates": [
          72.8575004,
          19.0432664
        ]
      },
      "id": "way/308016832"
    },
    {
      "type": "Feature",
      "properties": {
        "@id": "node/308446629",
        "amenity": "police",
        "name": "Police Station"
      },
      "geometry": {
        "type": "Point",
        "coordinates": [
          77.0083512,
          10.6571159
        ]
      },
      "id": "node/308446629"
    },
    {
      "type": "Feature",
      "properties": {
        "@id": "node/308449858",
        "amenity": "police"
      },
      "geometry": {
        "type": "Point",
        "coordinates": [
          77.0184714,
          10.6565729
        ]
      },
      "id": "node/308449858"
    },
    {
      "type": "Feature",
      "properties": {
        "@id": "node/308931002",
        "amenity": "police",
        "created_by": "Potlatch 0.10f"
      },
      "geometry": {
        "type": "Point",
        "coordinates": [
          77.3375263,
          28.5779649
        ]
      },
      "id": "node/308931002"
    },
    {
      "type": "Feature",
      "properties": {
        "@id": "node/309609271",
        "amenity": "police",
        "name": "Police Station, Museum",
        "ref": "15291028",
        "wheelchair": "no"
      },
      "geometry": {
        "type": "Point",
        "coordinates": [
          76.9567814,
          8.5093212
        ]
      },
      "id": "node/309609271"
    },
    {
      "type": "Feature",
      "properties": {
        "@id": "way/309716699",
        "amenity": "police",
        "name": "Inter State Border Check Post",
        "@geometry": "center"
      },
      "geometry": {
        "type": "Point",
        "coordinates": [
          75.8495525,
          17.4481044
        ]
      },
      "id": "way/309716699"
    },
    {
      "type": "Feature",
      "properties": {
        "@id": "way/312017989",
        "amenity": "police",
        "building": "yes",
        "name": "Nallappa Thana Police Station",
        "name:kn": "ನಲ್ಲಪ್ಪ ಠಾಣಾ ಪೋಲಿಸ್ ಠಾಣೆ",
        "@geometry": "center"
      },
      "geometry": {
        "type": "Point",
        "coordinates": [
          76.64726,
          12.3081859
        ]
      },
      "id": "way/312017989"
    },
    {
      "type": "Feature",
      "properties": {
        "@id": "node/312025133",
        "amenity": "police",
        "name": "Adyar J2"
      },
      "geometry": {
        "type": "Point",
        "coordinates": [
          80.2557176,
          12.997814
        ]
      },
      "id": "node/312025133"
    },
    {
      "type": "Feature",
      "properties": {
        "@id": "way/312602302",
        "amenity": "police",
        "name": "Bodhgaya Police Station",
        "phone": "+91 9431822208",
        "@geometry": "center"
      },
      "geometry": {
        "type": "Point",
        "coordinates": [
          84.993457,
          24.6993213
        ]
      },
      "id": "way/312602302"
    },
    {
      "type": "Feature",
      "properties": {
        "@id": "way/312763210",
        "amenity": "police",
        "building": "yes",
        "name": "Borivali Police Station",
        "@geometry": "center"
      },
      "geometry": {
        "type": "Point",
        "coordinates": [
          72.8559326,
          19.2295552
        ]
      },
      "id": "way/312763210"
    },
    {
      "type": "Feature",
      "properties": {
        "@id": "node/313951548",
        "amenity": "police",
        "created_by": "Potlatch 0.10f"
      },
      "geometry": {
        "type": "Point",
        "coordinates": [
          80.192063,
          12.9814685
        ]
      },
      "id": "node/313951548"
    },
    {
      "type": "Feature",
      "properties": {
        "@id": "way/313978170",
        "amenity": "police",
        "building": "yes",
        "name": "Ashokpuram Police Station",
        "name:kn": "ಅಶೋಕಪುರಂ ಆರಕ್ಷಕ ಠಾಣೆ",
        "@geometry": "center"
      },
      "geometry": {
        "type": "Point",
        "coordinates": [
          76.6313598,
          12.2892323
        ]
      },
      "id": "way/313978170"
    },
    {
      "type": "Feature",
      "properties": {
        "@id": "way/315440436",
        "addr:city": "kamothe, navi mumbai",
        "addr:housenumber": "sec 36",
        "amenity": "police",
        "name": "kamothe police station",
        "opening_hours": "24/7",
        "@geometry": "center"
      },
      "geometry": {
        "type": "Point",
        "coordinates": [
          73.0911277,
          19.0223501
        ]
      },
      "id": "way/315440436"
    },
    {
      "type": "Feature",
      "properties": {
        "@id": "way/316041144",
        "addr:city": "Mysuru",
        "addr:street": "Sahukar Chennaiah Road",
        "amenity": "police",
        "building": "yes",
        "name": "Sarasvathipuram Police Station",
        "name:kn": "ಸರಸ್ವತಿಪುರಂ ಪೋಲಿಸ್ ಠಾಣೆ",
        "@geometry": "center"
      },
      "geometry": {
        "type": "Point",
        "coordinates": [
          76.6239124,
          12.3016654
        ]
      },
      "id": "way/316041144"
    },
    {
      "type": "Feature",
      "properties": {
        "@id": "way/317146448",
        "amenity": "police",
        "name": "Police Headcquarter Aurangabad(Rural)",
        "@geometry": "center"
      },
      "geometry": {
        "type": "Point",
        "coordinates": [
          75.3529697,
          19.8994193
        ]
      },
      "id": "way/317146448"
    },
    {
      "type": "Feature",
      "properties": {
        "@id": "way/317222141",
        "addr:city": "Mulund (West)",
        "addr:street": "Subhash Chandra Bose Road",
        "amenity": "police",
        "name": "Mulund Police Station",
        "@geometry": "center"
      },
      "geometry": {
        "type": "Point",
        "coordinates": [
          72.9516944,
          19.1772976
        ]
      },
      "id": "way/317222141"
    },
    {
      "type": "Feature",
      "properties": {
        "@id": "way/317752661",
        "amenity": "police",
        "building": "yes",
        "name": "Police station1",
        "@geometry": "center"
      },
      "geometry": {
        "type": "Point",
        "coordinates": [
          75.6263265,
          19.5777207
        ]
      },
      "id": "way/317752661"
    },
    {
      "type": "Feature",
      "properties": {
        "@id": "way/318335636",
        "addr:city": "Ahmedabad",
        "addr:country": "IN",
        "addr:state": "Gujarat",
        "addr:street": "Jawaharlal Nehru Road",
        "amenity": "police",
        "name": "Vejalpur Police Station",
        "postal_code": "380055",
        "@geometry": "center"
      },
      "geometry": {
        "type": "Point",
        "coordinates": [
          72.5371847,
          22.9967189
        ]
      },
      "id": "way/318335636"
    },
    {
      "type": "Feature",
      "properties": {
        "@id": "way/318335637",
        "addr:city": "Ahmedabad",
        "addr:country": "IN",
        "amenity": "police",
        "building": "public",
        "building:colour": "beige;blue",
        "building:levels": "2",
        "building:material": "plaster",
        "name": "Naranpura Police Station",
        "phone": "+917927472043",
        "postal_code": "3800013",
        "roof:material": "concrete",
        "roof:shape": "flat",
        "@geometry": "center"
      },
      "geometry": {
        "type": "Point",
        "coordinates": [
          72.5662069,
          23.0634699
        ]
      },
      "id": "way/318335637"
    },
    {
      "type": "Feature",
      "properties": {
        "@id": "way/318335639",
        "addr:city": "ahmedabad",
        "amenity": "police",
        "name": "Satelite Police Station",
        "@geometry": "center"
      },
      "geometry": {
        "type": "Point",
        "coordinates": [
          72.5109956,
          23.0276929
        ]
      },
      "id": "way/318335639"
    },
    {
      "type": "Feature",
      "properties": {
        "@id": "way/318359719",
        "amenity": "police",
        "building": "yes",
        "name": "Karanj Police Station",
        "@geometry": "center"
      },
      "geometry": {
        "type": "Point",
        "coordinates": [
          72.5841315,
          23.0306493
        ]
      },
      "id": "way/318359719"
    },