[
  {
    "city": "Mumbai",
    "state": "Maharashtra",
    "lat": 19.0760,
    "lng": 72.8777,
    "landslideRisk": 0.52,
    "floodRisk": 0.58,
    "earthquakeFrequency": 2,
    "avgRainfall": 2500.0,
    "elevation": 14,
    "radiusMeters": 3000,
    "riskFactors": ["Heavy monsoon flooding", "Coastal storm surges", "Landslide-prone hills"]
  },
  {
    "city": "Delhi",
    "state": "Delhi",
    "lat": 28.6139,
    "lng": 77.2090,
    "landslideRisk": 0.45,
    "floodRisk": 0.52,
    "earthquakeFrequency": 4,
    "avgRainfall": 800.0,
    "elevation": 216,
    "radiusMeters": 3000,
    "riskFactors": ["Yamuna flooding", "Earthquake zone IV", "Waterlogging"]
  },
  {
    "city": "Bangalore",
    "state": "Karnataka",
    "lat": 12.9716,
    "lng": 77.5946,
    "landslideRisk": 0.45,
    "floodRisk": 0.52,
    "earthquakeFrequency": 2,
    "avgRainfall": 970.0,
    "elevation": 920,
    "radiusMeters": 2500,
    "riskFactors": ["Urban flooding", "Lake overflow", "Poor drainage"]
  },
  {
    "city": "Hyderabad",
    "state": "Telangana",
    "lat": 17.3850,
    "lng": 78.4867,
    "landslideRisk": 0.50,
    "floodRisk": 0.53,
    "earthquakeFrequency": 2,
    "avgRainfall": 800.0,
    "elevation": 505,
    "radiusMeters": 2500,
    "riskFactors": ["Flash floods", "Lake breaches", "Urban waterlogging"]
  },
  {
    "city": "Chennai",
    "state": "Tamil Nadu",
    "lat": 13.0827,
    "lng": 80.2707,
    "landslideRisk": 0.55,
    "floodRisk": 0.65,
    "earthquakeFrequency": 2,
    "avgRainfall": 1400.0,
    "elevation": 6,
    "radiusMeters": 2800,
    "riskFactors": ["Cyclone-prone coast", "Heavy monsoon floods", "Storm surges"]
  },
  {
    "city": "Kolkata",
    "state": "West Bengal",
    "lat": 22.5726,
    "lng": 88.3639,
    "landslideRisk": 0.48,
    "floodRisk": 0.62,
    "earthquakeFrequency": 3,
    "avgRainfall": 1800.0,
    "elevation": 9,
    "radiusMeters": 2500,
    "riskFactors": ["Cyclone-prone", "River flooding", "Waterlogging"]
  },
  {
    "city": "Pune",
    "state": "Maharashtra",
    "lat": 18.5204,
    "lng": 73.8567,
    "landslideRisk": 0.50,
    "floodRisk": 0.40,
    "earthquakeFrequency": 2,
    "avgRainfall": 750.0,
    "elevation": 560,
    "radiusMeters": 2000,
    "riskFactors": ["Hill landslides", "Dam overflow risk", "Flash floods"]
  },
  {
    "city": "Ahmedabad",
    "state": "Gujarat",
    "lat": 23.0225,
    "lng": 72.5714,
    "landslideRisk": 0.48,
    "floodRisk": 0.45,
    "earthquakeFrequency": 3,
    "avgRainfall": 800.0,
    "elevation": 53,
    "radiusMeters": 2000,
    "riskFactors": ["Earthquake zone III", "Sabarmati flooding", "Heatwaves"]
  },
  {
    "city": "Jaipur",
    "state": "Rajasthan",
    "lat": 26.9124,
    "lng": 75.7873,
    "landslideRisk": 0.42,
    "floodRisk": 0.48,
    "earthquakeFrequency": 2,
    "avgRainfall": 600.0,
    "elevation": 431,
    "radiusMeters": 1800,
    "riskFactors": ["Flash floods", "Heatwave prone", "Desert storms"]
  },
  {
    "city": "Lucknow",
    "state": "Uttar Pradesh",
    "lat": 26.8467,
    "lng": 80.9462,
    "landslideRisk": 0.50,
    "floodRisk": 0.50,
    "earthquakeFrequency": 2,
    "avgRainfall": 900.0,
    "elevation": 123,
    "radiusMeters": 1800,
    "riskFactors": ["Gomti river flooding", "Waterlogging", "Heavy monsoon"]
  },
  {
    "city": "Kanpur",
    "state": "Uttar Pradesh",
    "lat": 26.4499,
    "lng": 80.3319,
    "landslideRisk": 0.45,
    "floodRisk": 0.55,
    "earthquakeFrequency": 2,
    "avgRainfall": 800.0,
    "elevation": 126,
    "radiusMeters": 1500,
    "riskFactors": ["Ganga flooding", "Industrial hazards", "Waterlogging"]
  },
  {
    "city": "Surat",
    "state": "Gujarat",
    "lat": 21.1702,
    "lng": 72.8311,
    "landslideRisk": 0.42,
    "floodRisk": 0.55,
    "earthquakeFrequency": 2,
    "avgRainfall": 1200.0,
    "elevation": 13,
    "radiusMeters": 1500,
    "riskFactors": ["Tapi river flooding", "Dam release floods", "Coastal hazards"]
  },
  {
    "city": "Nagpur",
    "state": "Maharashtra",
    "lat": 21.1458,
    "lng": 79.0882,
    "landslideRisk": 0.45,
    "floodRisk": 0.45,
    "earthquakeFrequency": 2,
    "avgRainfall": 1100.0,
    "elevation": 310,
    "radiusMeters": 1500,
    "riskFactors": ["Nag river flooding", "Heatwaves", "Heavy monsoon"]
  },
  {
    "city": "Visakhapatnam",
    "state": "Andhra Pradesh",
    "lat": 17.6868,
    "lng": 83.2185,
    "landslideRisk": 0.48,
    "floodRisk": 0.42,
    "earthquakeFrequency": 2,
    "avgRainfall": 1100.0,
    "elevation": 45,
    "radiusMeters": 1500,
    "riskFactors": ["Cyclone-prone coast", "Hill landslides", "Storm surges"]
  },
  {
    "city": "Bhopal",
    "state": "Madhya Pradesh",
    "lat": 23.2599,
    "lng": 77.4126,
    "landslideRisk": 0.48,
    "floodRisk": 0.58,
    "earthquakeFrequency": 2,
    "avgRainfall": 1150.0,
    "elevation": 527,
    "radiusMeters": 1500,
    "riskFactors": ["Lake overflow", "Heavy monsoon", "Industrial hazards"]
  },
  {
    "city": "Patna",
    "state": "Bihar",
    "lat": 25.6093,
    "lng": 85.1376,
    "landslideRisk": 0.50,
    "floodRisk": 0.60,
    "earthquakeFrequency": 3,
    "avgRainfall": 1100.0,
    "elevation": 53,
    "radiusMeters": 1500,
    "riskFactors": ["Ganga flooding", "Earthquake zone IV", "Heavy monsoon"]
  },
  {
    "city": "Ghaziabad",
    "state": "Uttar Pradesh",
    "lat": 28.6692,
    "lng": 77.4538,
    "landslideRisk": 0.44,
    "floodRisk": 0.48,
    "earthquakeFrequency": 3,
    "avgRainfall": 800.0,
    "elevation": 210,
    "radiusMeters": 1200,
    "riskFactors": ["Hindon river flooding", "Earthquake zone IV", "Waterlogging"]
  },
  {
    "city": "Srinagar",
    "state": "Jammu & Kashmir",
    "lat": 34.0837,
    "lng": 74.7973,
    "landslideRisk": 0.55,
    "floodRisk": 0.52,
    "earthquakeFrequency": 4,
    "avgRainfall": 700.0,
    "elevation": 1585,
    "radiusMeters": 1500,
    "riskFactors": ["Jhelum flooding", "Earthquake zone V", "Landslide-prone terrain"]
  },
  {
    "city": "Nashik",
    "state": "Maharashtra",
    "lat": 19.9975,
    "lng": 73.7898,
    "landslideRisk": 0.55,
    "floodRisk": 0.48,
    "earthquakeFrequency": 2,
    "avgRainfall": 1000.0,
    "elevation": 565,
    "radiusMeters": 1200,
    "riskFactors": ["Dam overflow", "Hill landslides", "Heavy monsoon"]
  },
  {
    "city": "Varanasi",
    "state": "Uttar Pradesh",
    "lat": 25.3176,
    "lng": 82.9739,
    "landslideRisk": 0.42,
    "floodRisk": 0.58,
    "earthquakeFrequency": 2,
    "avgRainfall": 1000.0,
    "elevation": 80,
    "radiusMeters": 1200,
    "riskFactors": ["Ganga flooding", "Waterlogging", "Heavy monsoon"]
  },
  {
    "city": "Faridabad",
    "state": "Haryana",
    "lat": 28.4089,
    "lng": 77.3178,
    "landslideRisk": 0.40,
    "floodRisk": 0.45,
    "earthquakeFrequency": 3,
    "avgRainfall": 700.0,
    "elevation": 198,
    "radiusMeters": 1000,
    "riskFactors": ["Yamuna flooding", "Earthquake zone IV", "Waterlogging"]
  },
  {
    "city": "Rajkot",
    "state": "Gujarat",
    "lat": 22.3039,
    "lng": 70.8022,
    "landslideRisk": 0.50,
    "floodRisk": 0.45,
    "earthquakeFrequency": 3,
    "avgRainfall": 600.0,
    "elevation": 128,
    "radiusMeters": 1000,
    "riskFactors": ["Earthquake zone III", "Flash floods", "Drought-flood cycle"]
  },
  {
    "city": "Dhanbad",
    "state": "Jharkhand",
    "lat": 23.7957,
    "lng": 86.4304,
    "landslideRisk": 0.45,
    "floodRisk": 0.52,
    "earthquakeFrequency": 2,
    "avgRainfall": 1300.0,
    "elevation": 227,
    "radiusMeters": 1200,
    "riskFactors": ["Mining subsidence", "Heavy monsoon", "Waterlogging"]
  },
  {
    "city": "Aurangabad",
    "state": "Maharashtra",
    "lat": 19.8762,
    "lng": 75.3433,
    "landslideRisk": 0.45,
    "floodRisk": 0.42,
    "earthquakeFrequency": 2,
    "avgRainfall": 700.0,
    "elevation": 568,
    "radiusMeters": 1200,
    "riskFactors": ["Flash floods", "Drought-flood cycle", "River overflow"]
  },
  {
    "city": "Vadodara",
    "state": "Gujarat",
    "lat": 22.3072,
    "lng": 73.1812,
    "landslideRisk": 0.42,
    "floodRisk": 0.48,
    "earthquakeFrequency": 2,
    "avgRainfall": 900.0,
    "elevation": 39,
    "radiusMeters": 1200,
    "riskFactors": ["Vishwamitri river flooding", "Dam overflow", "Waterlogging"]
  }
]
